[{"open":false,"id":31705,"name":"31705 - CHAMPEAUX (BAGNOLET)","bike_stands":50,"available_bikes":0,"position":{"lat":48.864528,"lng":2.416171},"last_update":1437069103000},{"open":true,"id":10042,"name":"10042 - POISSONNI\u00c8RE - ENGHIEN","bike_stands":33,"available_bikes":0,"position":{"lat":48.87242,"lng":2.348395},"last_update":1437069095000},{"open":true,"id":8020,"name":"08020 - METRO ROME","bike_stands":44,"available_bikes":1,"position":{"lat":48.882149,"lng":2.31986},"last_update":1437069036000},{"open":true,"id":1022,"name":"01022 - RUE DE LA PAIX","bike_stands":37,"available_bikes":9,"position":{"lat":48.868217,"lng":2.330494},"last_update":1437069068000},{"open":true,"id":35014,"name":"35014 - DE GAULLE (PANTIN)","bike_stands":25,"available_bikes":11,"position":{"lat":48.893269,"lng":2.412716},"last_update":1437069108000},{"open":true,"id":20040,"name":"20040 - PARC DE BELLEVILLE","bike_stands":26,"available_bikes":0,"position":{"lat":48.870394,"lng":2.384222},"last_update":1437069065000},{"open":true,"id":28002,"name":"28002 - SOLJENITSYNE (PUTEAUX)","bike_stands":60,"available_bikes":50,"position":{"lat":48.884478,"lng":2.247721},"last_update":1437069101000},{"open":true,"id":15111,"name":"15111 - SERRES","bike_stands":24,"available_bikes":3,"position":{"lat":48.834659,"lng":2.295789},"last_update":1437069017000},{"open":true,"id":12124,"name":"12124 - PYRAMIDE ARTILLERIE","bike_stands":55,"available_bikes":12,"position":{"lat":48.839041,"lng":2.437655},"last_update":1437069114000},{"open":true,"id":9021,"name":"09021 - SAINT GEORGES","bike_stands":22,"available_bikes":3,"position":{"lat":48.877872,"lng":2.337447},"last_update":1437069030000},{"open":true,"id":7007,"name":"07007 - MUS\u00c9E D'ORSAY","bike_stands":65,"available_bikes":33,"position":{"lat":48.85971,"lng":2.325809},"last_update":1437069088000},{"open":true,"id":20011,"name":"20011 - PYR\u00c9N\u00c9ES-DAGORNO","bike_stands":21,"available_bikes":1,"position":{"lat":48.855501,"lng":2.405169},"last_update":1437069116000},{"open":true,"id":33006,"name":"33006 - KARMAN (AUBERVILLIERS)","bike_stands":29,"available_bikes":16,"position":{"lat":48.910144,"lng":2.385052},"last_update":1437068528000},{"open":true,"id":5005,"name":"05005 - SAINT JACQUES GAY LUSSAC","bike_stands":24,"available_bikes":1,"position":{"lat":48.84473,"lng":2.341924},"last_update":1437068569000},{"open":true,"id":11029,"name":"11029 - MENILMONTANT OBERKAMPF","bike_stands":40,"available_bikes":18,"position":{"lat":48.866618,"lng":2.383013},"last_update":1437069086000},{"open":true,"id":4020,"name":"04020 - BEAUBOURG PLACE MICHELET","bike_stands":28,"available_bikes":27,"position":{"lat":48.860088,"lng":2.350148},"last_update":1437069018000},{"open":true,"id":7012,"name":"07012 - CITE VANEAU","bike_stands":36,"available_bikes":3,"position":{"lat":48.854268,"lng":2.319454},"last_update":1437068530000},{"open":true,"id":19019,"name":"19019 - PETIT HONNEGER","bike_stands":22,"available_bikes":7,"position":{"lat":48.88639,"lng":2.393638},"last_update":1437069011000},{"open":true,"id":14113,"name":"14113 - ARAGO 2","bike_stands":37,"available_bikes":3,"position":{"lat":48.835129,"lng":2.341579},"last_update":1437069109000},{"open":true,"id":15028,"name":"15028 - DUPLEIX","bike_stands":69,"available_bikes":38,"position":{"lat":48.851397,"lng":2.291889},"last_update":1437069038000},{"open":true,"id":22005,"name":"22005 - DE GAULLE 3 (NEUILLY)","bike_stands":22,"available_bikes":1,"position":{"lat":48.884299,"lng":2.260992},"last_update":1437068573000},{"open":true,"id":20027,"name":"20027 - PORTE DE MENILMONTANT","bike_stands":15,"available_bikes":0,"position":{"lat":48.869154,"lng":2.409322},"last_update":1437068647000},{"open":true,"id":18042,"name":"18042 - PIGALLE GERMAIN PILLON","bike_stands":21,"available_bikes":2,"position":{"lat":48.882728,"lng":2.336263},"last_update":1437068784000},{"open":true,"id":11008,"name":"11008 - FAIDHERBE CHALIGNY","bike_stands":40,"available_bikes":27,"position":{"lat":48.85038,"lng":2.383869},"last_update":1437069086000},{"open":true,"id":19038,"name":"19038 - JOURDAIN","bike_stands":19,"available_bikes":0,"position":{"lat":48.87555,"lng":2.389038},"last_update":1437068913000},{"open":true,"id":13037,"name":"13037 - IVRY BAUDICOURT","bike_stands":20,"available_bikes":3,"position":{"lat":48.824696,"lng":2.363106},"last_update":1437068898000},{"open":true,"id":13040,"name":"13040 - PORTE DE CHOISY","bike_stands":44,"available_bikes":16,"position":{"lat":48.819942,"lng":2.365079},"last_update":1437069004000},{"open":true,"id":16027,"name":"16027 - JASMIN","bike_stands":61,"available_bikes":39,"position":{"lat":48.852861,"lng":2.268484},"last_update":1437069124000},{"open":true,"id":15118,"name":"15118 - PLACE BIENVENUE","bike_stands":22,"available_bikes":2,"position":{"lat":48.843199,"lng":2.322257},"last_update":1437069072000},{"open":true,"id":6006,"name":"06006 - NOTRE DAME DES CHAMPS","bike_stands":19,"available_bikes":3,"position":{"lat":48.844799,"lng":2.329338},"last_update":1437069050000},{"open":true,"id":20015,"name":"20015 - BAGNOLET-ORTEAUX","bike_stands":38,"available_bikes":17,"position":{"lat":48.857143,"lng":2.398472},"last_update":1437069122000},{"open":true,"id":9005,"name":"09005 - SQUARE D'ANVERS","bike_stands":33,"available_bikes":0,"position":{"lat":48.882633,"lng":2.344884},"last_update":1437068528000},{"open":true,"id":8031,"name":"08031 - ROND POINT DES CHAMPS ELYSEES","bike_stands":33,"available_bikes":3,"position":{"lat":48.869709,"lng":2.310715},"last_update":1437069124000},{"open":true,"id":12015,"name":"12015 - NATION PICPUS","bike_stands":36,"available_bikes":12,"position":{"lat":48.846964,"lng":2.399868},"last_update":1437069100000},{"open":true,"id":14120,"name":"14120 - JOURDAN BARBOUX","bike_stands":20,"available_bikes":1,"position":{"lat":48.821955,"lng":2.326807},"last_update":1437069092000},{"open":true,"id":9007,"name":"09007 - CONDORCET","bike_stands":20,"available_bikes":0,"position":{"lat":48.879831,"lng":2.345396},"last_update":1437068852000},{"open":true,"id":9019,"name":"09019 - VICTOR MASSE","bike_stands":18,"available_bikes":4,"position":{"lat":48.881149,"lng":2.336681},"last_update":1437069079000},{"open":true,"id":15040,"name":"15040 - MONCLAR","bike_stands":36,"available_bikes":36,"position":{"lat":48.834117,"lng":2.30885},"last_update":1437068967000},{"open":true,"id":14013,"name":"14013 - LIART AMIRAL MOUCHEZ","bike_stands":14,"available_bikes":14,"position":{"lat":48.821228,"lng":2.342104},"last_update":1437068999000},{"open":true,"id":42201,"name":"42201 - NECKER (CHARENTON)","bike_stands":26,"available_bikes":17,"position":{"lat":48.823963,"lng":2.399998},"last_update":1437068962000},{"open":true,"id":11038,"name":"11038 - TEMPLE REPUBLIQUE","bike_stands":45,"available_bikes":8,"position":{"lat":48.865745,"lng":2.365313},"last_update":1437069095000},{"open":true,"id":18019,"name":"18019 - MONTCALM","bike_stands":49,"available_bikes":2,"position":{"lat":48.891878,"lng":2.335447},"last_update":1437068749000},{"open":false,"id":17008,"name":"17008 - PORCHE POUCHET","bike_stands":36,"available_bikes":0,"position":{"lat":48.898774,"lng":2.322478},"last_update":1437068703000},{"open":true,"id":901,"name":"00901 - PORT SOLF\u00c9RINO (STATION MOBILE)","bike_stands":20,"available_bikes":16,"position":{"lat":48.86138,"lng":2.32442},"last_update":1437068997000},{"open":true,"id":15064,"name":"15064 - JAVEL","bike_stands":45,"available_bikes":3,"position":{"lat":48.846295,"lng":2.278414},"last_update":1437069112000},{"open":true,"id":12031,"name":"12031 - LAME","bike_stands":36,"available_bikes":29,"position":{"lat":48.835138,"lng":2.385478},"last_update":1437069110000},{"open":false,"id":13021,"name":"13021 - BOUSSINGAULT - TOLBIAC","bike_stands":47,"available_bikes":0,"position":{"lat":48.826035,"lng":2.342177},"last_update":1437068744000},{"open":true,"id":34002,"name":"34002 - PERI (SAINT OUEN)","bike_stands":26,"available_bikes":2,"position":{"lat":48.902592,"lng":2.330514},"last_update":1437069020000},{"open":true,"id":2005,"name":"02005 - MONTORGUEIL RUE MONTMARTRE VERSION 2","bike_stands":15,"available_bikes":10,"position":{"lat":48.865022,"lng":2.345068},"last_update":1437069105000},{"open":true,"id":22012,"name":"22012 - MICHELIS (NEUILLY)","bike_stands":25,"available_bikes":5,"position":{"lat":48.88275,"lng":2.277406},"last_update":1437069002000},{"open":true,"id":5104,"name":"05104 - BUFFON","bike_stands":55,"available_bikes":21,"position":{"lat":48.841916,"lng":2.358913},"last_update":1437068989000},{"open":true,"id":31008,"name":"31008 - VINCENNES (MONTREUIL)","bike_stands":56,"available_bikes":7,"position":{"lat":48.857702,"lng":2.437369},"last_update":1437069085000},{"open":true,"id":15062,"name":"15062 - BOUCICAUT","bike_stands":36,"available_bikes":15,"position":{"lat":48.842144,"lng":2.285863},"last_update":1437068985000},{"open":true,"id":4012,"name":"04012 - ECOUFFES RIVOLI","bike_stands":28,"available_bikes":28,"position":{"lat":48.855797,"lng":2.357908},"last_update":1437069060000},{"open":true,"id":3011,"name":"03011 - TURBIGO","bike_stands":31,"available_bikes":26,"position":{"lat":48.865584,"lng":2.356278},"last_update":1437069117000},{"open":true,"id":20017,"name":"20017 - RUE SAINT BLAISE","bike_stands":27,"available_bikes":6,"position":{"lat":48.856975,"lng":2.408842},"last_update":1437069012000},{"open":true,"id":18028,"name":"18028 - VAUVENARGUES","bike_stands":33,"available_bikes":5,"position":{"lat":48.894057,"lng":2.332199},"last_update":1437069055000},{"open":true,"id":12024,"name":"12024 - GARE DE BERCY","bike_stands":35,"available_bikes":19,"position":{"lat":48.83976,"lng":2.38241},"last_update":1437069105000},{"open":true,"id":11113,"name":"11113 - REPUBLIQUE FERRY","bike_stands":56,"available_bikes":7,"position":{"lat":48.866516,"lng":2.369323},"last_update":1437068928000},{"open":true,"id":21015,"name":"21015 - NATIONALE (BOULOGNE-BILLANCOURT)","bike_stands":23,"available_bikes":20,"position":{"lat":48.8276,"lng":2.241835},"last_update":1437068914000},{"open":true,"id":42015,"name":"42015 - JEAN FERRAT (IVRY)","bike_stands":25,"available_bikes":1,"position":{"lat":48.8185,"lng":2.37427},"last_update":1437068545000},{"open":true,"id":5002,"name":"05002 - SAINT JACQUES","bike_stands":35,"available_bikes":13,"position":{"lat":48.85031,"lng":2.345016},"last_update":1437069120000},{"open":true,"id":10040,"name":"10040 - BELLEVILLE","bike_stands":48,"available_bikes":3,"position":{"lat":48.872778,"lng":2.376348},"last_update":1437068861000},{"open":true,"id":13018,"name":"13018 - AURIOL CHEVALERET","bike_stands":25,"available_bikes":15,"position":{"lat":48.834848,"lng":2.366826},"last_update":1437068816000},{"open":true,"id":13026,"name":"13026 - PLACE HENOCQUE VERSION 2","bike_stands":34,"available_bikes":19,"position":{"lat":48.823316,"lng":2.354337},"last_update":1437069066000},{"open":true,"id":19028,"name":"19028 - PLACE DES FETES","bike_stands":20,"available_bikes":0,"position":{"lat":48.876468,"lng":2.392285},"last_update":1437068784000},{"open":true,"id":10008,"name":"10008 - CITE RIVERIN","bike_stands":18,"available_bikes":4,"position":{"lat":48.870765,"lng":2.358724},"last_update":1437069052000},{"open":true,"id":6015,"name":"06015 - MAZET SAINT ANDRE DES ARTS","bike_stands":54,"available_bikes":26,"position":{"lat":48.853751,"lng":2.339114},"last_update":1437068973000},{"open":true,"id":43006,"name":"43006 - MINIMES (VINCENNES)","bike_stands":28,"available_bikes":19,"position":{"lat":48.841487,"lng":2.430793},"last_update":1437068579000},{"open":true,"id":15054,"name":"15054 - CHANDON","bike_stands":19,"available_bikes":15,"position":{"lat":48.83797,"lng":2.287582},"last_update":1437068971000},{"open":true,"id":11043,"name":"11043 - CIRQUE D HIVER","bike_stands":21,"available_bikes":4,"position":{"lat":48.86265,"lng":2.367053},"last_update":1437068920000},{"open":true,"id":5024,"name":"05024 - PLACE MONGE","bike_stands":21,"available_bikes":1,"position":{"lat":48.842735,"lng":2.352472},"last_update":1437069122000},{"open":true,"id":15036,"name":"15036 - LAMBERT","bike_stands":47,"available_bikes":4,"position":{"lat":48.843076,"lng":2.295141},"last_update":1437068976000},{"open":true,"id":42504,"name":"42504 - MALON (GENTILLY)","bike_stands":30,"available_bikes":3,"position":{"lat":48.81444,"lng":2.341071},"last_update":1437069052000},{"open":true,"id":6107,"name":"06107 - CHERCHE MIDI","bike_stands":23,"available_bikes":2,"position":{"lat":48.850241,"lng":2.327552},"last_update":1437068732000},{"open":true,"id":17029,"name":"17029 - PLACE AIM\u00c9E MAILLART","bike_stands":36,"available_bikes":3,"position":{"lat":48.881411,"lng":2.294828},"last_update":1437069074000},{"open":true,"id":13050,"name":"13050 - QUAI PANHARD ET LEVASSOR","bike_stands":59,"available_bikes":0,"position":{"lat":48.82837,"lng":2.38444},"last_update":1437068846000},{"open":true,"id":9020,"name":"09020 - TOUDOUZE CLAUZEL","bike_stands":21,"available_bikes":1,"position":{"lat":48.879505,"lng":2.337191},"last_update":1437069074000},{"open":true,"id":14029,"name":"14029 - GERGOVIE VERCINGETORIX","bike_stands":67,"available_bikes":10,"position":{"lat":48.834259,"lng":2.313392},"last_update":1437069063000},{"open":true,"id":10029,"name":"10029 - PLACE DE ROUBAIX","bike_stands":23,"available_bikes":0,"position":{"lat":48.880727,"lng":2.351464},"last_update":1437068986000},{"open":true,"id":9004,"name":"09004 - ROCHECHOUART GERANDO","bike_stands":21,"available_bikes":0,"position":{"lat":48.882911,"lng":2.346319},"last_update":1437068888000},{"open":true,"id":10015,"name":"10015 - RECOLLETS","bike_stands":46,"available_bikes":6,"position":{"lat":48.874113,"lng":2.362499},"last_update":1437069070000},{"open":true,"id":6029,"name":"06029 - VAUGIRARD PRINCE","bike_stands":24,"available_bikes":4,"position":{"lat":48.848923,"lng":2.341041},"last_update":1437069027000},{"open":true,"id":12151,"name":"12151 - GARE DE LYON","bike_stands":60,"available_bikes":2,"position":{"lat":48.845515,"lng":2.37265},"last_update":1437069106000},{"open":true,"id":12019,"name":"12019 - GARE DE REUILLY","bike_stands":28,"available_bikes":16,"position":{"lat":48.842577,"lng":2.39725},"last_update":1437069092000},{"open":true,"id":13116,"name":"13116 - PLACE DU DOCTEUR YERSIN","bike_stands":18,"available_bikes":10,"position":{"lat":48.820227,"lng":2.372209},"last_update":1437069119000},{"open":true,"id":19114,"name":"19114 - MANIN SECRETAN","bike_stands":20,"available_bikes":15,"position":{"lat":48.879275,"lng":2.378637},"last_update":1437052676000},{"open":true,"id":8025,"name":"08025 - MIROMESNIL","bike_stands":33,"available_bikes":3,"position":{"lat":48.87376,"lng":2.315876},"last_update":1437069097000},{"open":true,"id":14033,"name":"14033 - DAGUERRE GASSENDI","bike_stands":38,"available_bikes":2,"position":{"lat":48.83568,"lng":2.328291},"last_update":1437068857000},{"open":true,"id":22011,"name":"22011 - MONTROSIER (NEUILLY)","bike_stands":25,"available_bikes":5,"position":{"lat":48.879441,"lng":2.278536},"last_update":1437069094000},{"open":true,"id":12032,"name":"12032 - PORTE DOREE","bike_stands":35,"available_bikes":19,"position":{"lat":48.835545,"lng":2.407456},"last_update":1437069111000},{"open":true,"id":16110,"name":"16110 - OCTAVE FEUILLET","bike_stands":21,"available_bikes":0,"position":{"lat":48.860998,"lng":2.273129},"last_update":1437068654000},{"open":true,"id":16030,"name":"16030 - MIRABEAU","bike_stands":55,"available_bikes":51,"position":{"lat":48.847666,"lng":2.273556},"last_update":1437068788000},{"open":true,"id":15049,"name":"15049 - PORTE DE VERSAILLES","bike_stands":23,"available_bikes":20,"position":{"lat":48.832179,"lng":2.287122},"last_update":1437068652000},{"open":true,"id":15042,"name":"15042 - FARMAN","bike_stands":21,"available_bikes":1,"position":{"lat":48.833734,"lng":2.271396},"last_update":1437069024000},{"open":true,"id":19012,"name":"19012 - LALLY TOLLENDAL","bike_stands":60,"available_bikes":7,"position":{"lat":48.882701,"lng":2.374693},"last_update":1437068891000},{"open":true,"id":21018,"name":"21018 - SEINE (BOULOGNE-BILLANCOURT)","bike_stands":26,"available_bikes":21,"position":{"lat":48.828243,"lng":2.250658},"last_update":1437069123000},{"open":true,"id":15053,"name":"15053 - LECOURBE","bike_stands":45,"available_bikes":24,"position":{"lat":48.839222,"lng":2.291541},"last_update":1437069120000},{"open":true,"id":18027,"name":"18027 - DAMREMONT ORDENER","bike_stands":28,"available_bikes":7,"position":{"lat":48.8934,"lng":2.336267},"last_update":1437069110000},{"open":true,"id":6103,"name":"06103 - MEZIERES RENNES","bike_stands":55,"available_bikes":11,"position":{"lat":48.850297,"lng":2.330447},"last_update":1437069029000},{"open":true,"id":42006,"name":"42006 - BROSSOLETTE (IVRY)","bike_stands":20,"available_bikes":20,"position":{"lat":48.81693,"lng":2.38146},"last_update":1437068729000},{"open":false,"id":17011,"name":"17011 - PORTE DE CLICHY FRAGONARD","bike_stands":54,"available_bikes":0,"position":{"lat":48.894151,"lng":2.314678},"last_update":1437069018000},{"open":true,"id":6020,"name":"06020 - SAINT MICHEL DANTON","bike_stands":35,"available_bikes":34,"position":{"lat":48.85293,"lng":2.342657},"last_update":1437068989000},{"open":true,"id":11017,"name":"11017 - ALEXANDRE DUMAS","bike_stands":46,"available_bikes":27,"position":{"lat":48.854176,"lng":2.396093},"last_update":1437069102000},{"open":true,"id":14111,"name":"14111 - DENFERT-ROCHEREAU CASSINI","bike_stands":24,"available_bikes":0,"position":{"lat":48.837549,"lng":2.335983},"last_update":1437068565000},{"open":true,"id":11032,"name":"11032 - METALLOS","bike_stands":48,"available_bikes":40,"position":{"lat":48.867938,"lng":2.377886},"last_update":1437069114000},{"open":true,"id":21113,"name":"21113 - PETIT (CLICHY)","bike_stands":25,"available_bikes":5,"position":{"lat":48.899348,"lng":2.296626},"last_update":1437068915000},{"open":true,"id":11044,"name":"11044 - RICHARD LENOIR VOLTAIRE NORD","bike_stands":23,"available_bikes":9,"position":{"lat":48.863432,"lng":2.371209},"last_update":1437069059000},{"open":true,"id":3001,"name":"03001 - CHEMIN VERT BEAUMARCHAIS","bike_stands":52,"available_bikes":21,"position":{"lat":48.858044,"lng":2.367833},"last_update":1437069078000},{"open":true,"id":20133,"name":"20133 - RASSELINS","bike_stands":27,"available_bikes":22,"position":{"lat":48.853529,"lng":2.409615},"last_update":1437068711000},{"open":false,"id":13047,"name":"13047 - BOUTROUX VITRY","bike_stands":49,"available_bikes":0,"position":{"lat":48.822633,"lng":2.377738},"last_update":1437068775000},{"open":true,"id":34009,"name":"34009 - MAAR (SAINT OUEN)","bike_stands":26,"available_bikes":3,"position":{"lat":48.90527,"lng":2.322171},"last_update":1437069001000},{"open":true,"id":11001,"name":"11001 - BASTILLE RICHARD LENOIR","bike_stands":40,"available_bikes":34,"position":{"lat":48.853848,"lng":2.369701},"last_update":1437069123000},{"open":true,"id":3007,"name":"03007 - ARCHIVES PASTOURELLE","bike_stands":28,"available_bikes":16,"position":{"lat":48.862401,"lng":2.359447},"last_update":1437069115000},{"open":true,"id":9009,"name":"09009 - SQUARE MONTHOLON","bike_stands":21,"available_bikes":11,"position":{"lat":48.876601,"lng":2.345786},"last_update":1437069002000},{"open":true,"id":905,"name":"00905 - CONCORDE/BERGES DE SEINE (STATION MOBILE)","bike_stands":20,"available_bikes":15,"position":{"lat":48.86314,"lng":2.31669},"last_update":1437069024000},{"open":true,"id":15115,"name":"15115 - VAUGIRARD","bike_stands":48,"available_bikes":0,"position":{"lat":48.841325,"lng":2.318292},"last_update":1437068947000},{"open":true,"id":5018,"name":"05018 - MUTUALITE","bike_stands":37,"available_bikes":36,"position":{"lat":48.848386,"lng":2.35017},"last_update":1437069116000},{"open":true,"id":35006,"name":"35006 - DELIZY (PANTIN)","bike_stands":22,"available_bikes":20,"position":{"lat":48.896332,"lng":2.409088},"last_update":1437068719000},{"open":true,"id":9036,"name":"09036 - ATHENES CLICHY","bike_stands":20,"available_bikes":1,"position":{"lat":48.878114,"lng":2.32956},"last_update":1437068625000},{"open":true,"id":4107,"name":"04107 - BEAUMARCHAIS","bike_stands":18,"available_bikes":4,"position":{"lat":48.855501,"lng":2.368429},"last_update":1437068973000},{"open":true,"id":17050,"name":"17050 - BATIGNOLLES","bike_stands":17,"available_bikes":1,"position":{"lat":48.883104,"lng":2.323835},"last_update":1437068888000},{"open":true,"id":5013,"name":"05013 - ULM ERASME","bike_stands":20,"available_bikes":0,"position":{"lat":48.842548,"lng":2.344597},"last_update":1437069085000},{"open":true,"id":20110,"name":"20110 - PORTE DES LILAS","bike_stands":20,"available_bikes":0,"position":{"lat":48.875412,"lng":2.40596},"last_update":1437068839000},{"open":true,"id":13001,"name":"13001 - PORT ROYAL","bike_stands":18,"available_bikes":2,"position":{"lat":48.837728,"lng":2.344664},"last_update":1437068819000},{"open":true,"id":13103,"name":"13103 - SAINT MARCEL","bike_stands":50,"available_bikes":6,"position":{"lat":48.837728,"lng":2.36046},"last_update":1437069074000},{"open":true,"id":17018,"name":"17018 - MONCEAU","bike_stands":17,"available_bikes":3,"position":{"lat":48.881162,"lng":2.309512},"last_update":1437068979000},{"open":false,"id":31704,"name":"31704 - HORNET (BAGNOLET)","bike_stands":28,"available_bikes":0,"position":{"lat":48.873929,"lng":2.427934},"last_update":1437068768000},{"open":true,"id":4103,"name":"04103 - HOTEL DE VILLE","bike_stands":25,"available_bikes":23,"position":{"lat":48.857204,"lng":2.353976},"last_update":1437069124000},{"open":true,"id":21013,"name":"21013 - GRENIER (BOULOGNE-BILLANCOURT)","bike_stands":21,"available_bikes":21,"position":{"lat":48.825847,"lng":2.248821},"last_update":1437068912000},{"open":true,"id":11012,"name":"11012 - MONTREUIL VOLTAIRE","bike_stands":33,"available_bikes":11,"position":{"lat":48.850507,"lng":2.393076},"last_update":1437069064000},{"open":true,"id":33012,"name":"33012 - LANDY (AUBERVILLIERS)","bike_stands":30,"available_bikes":6,"position":{"lat":48.915156,"lng":2.376424},"last_update":1437068663000},{"open":false,"id":35001,"name":"35001 - JAURES 1 (PANTIN)","bike_stands":26,"available_bikes":0,"position":{"lat":48.910137,"lng":2.399326},"last_update":1437057547000},{"open":true,"id":21703,"name":"21703 - MARTINIE (VANVES)","bike_stands":24,"available_bikes":14,"position":{"lat":48.82105,"lng":2.291301},"last_update":1437069017000},{"open":true,"id":2101,"name":"02101 - BACHAUMONT","bike_stands":22,"available_bikes":13,"position":{"lat":48.866067,"lng":2.345464},"last_update":1437069122000},{"open":true,"id":17025,"name":"17025 - COURCELLES","bike_stands":35,"available_bikes":0,"position":{"lat":48.87943,"lng":2.303467},"last_update":1437068971000},{"open":true,"id":7004,"name":"07004 - RASPAIL VARENNE","bike_stands":36,"available_bikes":6,"position":{"lat":48.853262,"lng":2.32632},"last_update":1437068792000},{"open":true,"id":20032,"name":"20032 - AMANDIERS","bike_stands":12,"available_bikes":1,"position":{"lat":48.866295,"lng":2.38935},"last_update":1437068613000},{"open":true,"id":9008,"name":"09008 - TOUR D'AUVERGNE","bike_stands":17,"available_bikes":3,"position":{"lat":48.879162,"lng":2.343698},"last_update":1437068529000},{"open":true,"id":43007,"name":"43007 - VORGES (VINCENNES)","bike_stands":25,"available_bikes":13,"position":{"lat":48.848258,"lng":2.439893},"last_update":1437069045000},{"open":true,"id":12006,"name":"12006 - GARE DE LYON VAN GOGH","bike_stands":60,"available_bikes":1,"position":{"lat":48.844192,"lng":2.371692},"last_update":1437069116000},{"open":true,"id":21204,"name":"21204 - D'ORVES (MONTROUGE)","bike_stands":31,"available_bikes":0,"position":{"lat":48.815388,"lng":2.320887},"last_update":1437068609000},{"open":false,"id":14016,"name":"14016 - REILLE MONTSOURIS","bike_stands":53,"available_bikes":0,"position":{"lat":48.824767,"lng":2.336},"last_update":1437068580000},{"open":true,"id":31002,"name":"31002 - REPUBLIQUE (MONTREUIL)","bike_stands":25,"available_bikes":0,"position":{"lat":48.852814,"lng":2.419307},"last_update":1437068674000},{"open":true,"id":15070,"name":"15070 - BLANC","bike_stands":36,"available_bikes":13,"position":{"lat":48.838634,"lng":2.278274},"last_update":1437069119000},{"open":true,"id":17047,"name":"17047 - COURCELLES - DEMOURES","bike_stands":26,"available_bikes":1,"position":{"lat":48.88377,"lng":2.298585},"last_update":1437068781000},{"open":true,"id":18018,"name":"18018 - CARPEAUX","bike_stands":19,"available_bikes":9,"position":{"lat":48.890747,"lng":2.33082},"last_update":1437068942000},{"open":true,"id":4014,"name":"04014 - ARCHIVES BLANCS MANTEAUX","bike_stands":30,"available_bikes":30,"position":{"lat":48.859403,"lng":2.355927},"last_update":1437068991000},{"open":true,"id":15105,"name":"15105 - SUFFREN F\u00c9D\u00c9RATION","bike_stands":24,"available_bikes":9,"position":{"lat":48.852767,"lng":2.297876},"last_update":1437068669000},{"open":true,"id":10024,"name":"10024 - BUISSON SAINT LOUIS","bike_stands":18,"available_bikes":6,"position":{"lat":48.871826,"lng":2.372203},"last_update":1437068689000},{"open":true,"id":32008,"name":"32008 - EMGP NORD (SAINT DENIS)","bike_stands":35,"available_bikes":4,"position":{"lat":48.905745,"lng":2.364998},"last_update":1437068821000},{"open":true,"id":8054,"name":"08054 - HOCHE ALBRECHT","bike_stands":32,"available_bikes":2,"position":{"lat":48.87614,"lng":2.301303},"last_update":1437069012000},{"open":true,"id":7009,"name":"07009 - ASSEMBLEE NATIONALE","bike_stands":62,"available_bikes":4,"position":{"lat":48.861374,"lng":2.320131},"last_update":1437068911000},{"open":true,"id":1015,"name":"01015 - PLACE ANDRE MALRAUX","bike_stands":20,"available_bikes":9,"position":{"lat":48.86398,"lng":2.3356},"last_update":1437069041000},{"open":true,"id":17002,"name":"17002 - LA FOURCHE RUE DE LA CONDAMINE","bike_stands":37,"available_bikes":3,"position":{"lat":48.887901,"lng":2.3244},"last_update":1437068925000},{"open":true,"id":18030,"name":"18030 - SIMPLON","bike_stands":38,"available_bikes":18,"position":{"lat":48.893734,"lng":2.347518},"last_update":1437068575000},{"open":true,"id":32605,"name":"32605 - HORTENSIAS (LES LILAS)","bike_stands":22,"available_bikes":2,"position":{"lat":48.882173,"lng":2.423273},"last_update":1437069108000},{"open":true,"id":43005,"name":"43005 - AUBERT (VINCENNES)","bike_stands":49,"available_bikes":2,"position":{"lat":48.84755,"lng":2.433433},"last_update":1437068995000},{"open":true,"id":13045,"name":"13045 - TOLBIAC ALBERT","bike_stands":20,"available_bikes":9,"position":{"lat":48.827838,"lng":2.370531},"last_update":1437069124000},{"open":true,"id":8034,"name":"08034 - HAUSSMANN COURCELLES","bike_stands":34,"available_bikes":1,"position":{"lat":48.87481,"lng":2.308314},"last_update":1437068945000},{"open":true,"id":2012,"name":"02012 - QUATRE SEPTEMBRE","bike_stands":42,"available_bikes":1,"position":{"lat":48.86997,"lng":2.336039},"last_update":1437069075000},{"open":true,"id":5029,"name":"05029 - PORT ROYAL","bike_stands":30,"available_bikes":4,"position":{"lat":48.840109,"lng":2.337297},"last_update":1437069103000},{"open":true,"id":20008,"name":"20008 - MARAICHERS","bike_stands":31,"available_bikes":5,"position":{"lat":48.853247,"lng":2.405871},"last_update":1437069024000},{"open":true,"id":17039,"name":"17039 - PLACE SAINT FERDINAND","bike_stands":38,"available_bikes":5,"position":{"lat":48.878155,"lng":2.288518},"last_update":1437068794000},{"open":true,"id":15069,"name":"15069 - BOUCICAUT FAURE","bike_stands":46,"available_bikes":16,"position":{"lat":48.841249,"lng":2.288387},"last_update":1437068878000},{"open":true,"id":5027,"name":"05027 - GOBELINS","bike_stands":40,"available_bikes":38,"position":{"lat":48.837126,"lng":2.351433},"last_update":1437068767000},{"open":true,"id":12017,"name":"12017 - ST MANDE NETTER","bike_stands":39,"available_bikes":14,"position":{"lat":48.844635,"lng":2.4051},"last_update":1437069124000},{"open":true,"id":35003,"name":"35003 - VAILLANT (PANTIN)","bike_stands":20,"available_bikes":11,"position":{"lat":48.902692,"lng":2.393256},"last_update":1437069029000},{"open":true,"id":20116,"name":"20116 - HAIES REUNION","bike_stands":22,"available_bikes":5,"position":{"lat":48.853869,"lng":2.402426},"last_update":1437068579000},{"open":true,"id":18011,"name":"18011 - HERBERT","bike_stands":35,"available_bikes":5,"position":{"lat":48.892846,"lng":2.363429},"last_update":1437069050000},{"open":true,"id":13005,"name":"13005 - ARAGO CORDELIERE - VERSION 2","bike_stands":47,"available_bikes":43,"position":{"lat":48.835481,"lng":2.348572},"last_update":1437069110000},{"open":true,"id":10032,"name":"10032 - DODU","bike_stands":32,"available_bikes":0,"position":{"lat":48.872859,"lng":2.370072},"last_update":1437068946000},{"open":true,"id":15037,"name":"15037 - GROULT","bike_stands":47,"available_bikes":10,"position":{"lat":48.840416,"lng":2.295465},"last_update":1437068671000},{"open":true,"id":21106,"name":"21106 - MORICE 2 (CLICHY)","bike_stands":25,"available_bikes":9,"position":{"lat":48.90066,"lng":2.30857},"last_update":1437068909000},{"open":true,"id":8055,"name":"08055 - TERNES COURCELLES","bike_stands":29,"available_bikes":0,"position":{"lat":48.878189,"lng":2.299296},"last_update":1437068531000},{"open":true,"id":4002,"name":"04002 - MARCHE AUX FLEURS","bike_stands":24,"available_bikes":23,"position":{"lat":48.855253,"lng":2.347356},"last_update":1437068919000},{"open":true,"id":15030,"name":"15030 - LINOIS","bike_stands":33,"available_bikes":31,"position":{"lat":48.848046,"lng":2.284381},"last_update":1437069085000},{"open":true,"id":11020,"name":"11020 - CHARONNE","bike_stands":36,"available_bikes":28,"position":{"lat":48.856317,"lng":2.383072},"last_update":1437068969000},{"open":true,"id":15059,"name":"15059 - CITROEN","bike_stands":64,"available_bikes":23,"position":{"lat":48.840714,"lng":2.278019},"last_update":1437068575000},{"open":true,"id":8549,"name":"08549 - PLACE DUNANT","bike_stands":24,"available_bikes":1,"position":{"lat":48.870409,"lng":2.301123},"last_update":1437068669000},{"open":true,"id":21501,"name":"21501 - SELLIER (SURESNES)","bike_stands":51,"available_bikes":6,"position":{"lat":48.867566,"lng":2.225998},"last_update":1437069014000},{"open":true,"id":14011,"name":"14011 - ALESIA SARRETTE","bike_stands":23,"available_bikes":10,"position":{"lat":48.827525,"lng":2.331729},"last_update":1437069079000},{"open":true,"id":8013,"name":"08013 - MARIGNAN","bike_stands":33,"available_bikes":5,"position":{"lat":48.869616,"lng":2.306621},"last_update":1437068789000},{"open":true,"id":43001,"name":"43001 - PARIS 1 (VINCENNES)","bike_stands":22,"available_bikes":9,"position":{"lat":48.846338,"lng":2.420247},"last_update":1437069113000},{"open":true,"id":44101,"name":"44101 - PLACE MONGOLFIER (SAINT MAURICE)","bike_stands":48,"available_bikes":37,"position":{"lat":48.81505,"lng":2.459239},"last_update":1437068930000},{"open":true,"id":1007,"name":"01007 - ETIENNE MARCEL","bike_stands":20,"available_bikes":15,"position":{"lat":48.863567,"lng":2.347702},"last_update":1437069105000},{"open":true,"id":8105,"name":"08105 - FRANCOIS 1ER LINCOLN","bike_stands":31,"available_bikes":17,"position":{"lat":48.869518,"lng":2.302426},"last_update":1437069023000},{"open":true,"id":16042,"name":"16042 - PORTE DE SAINT CLOUD","bike_stands":56,"available_bikes":48,"position":{"lat":48.837555,"lng":2.257973},"last_update":1437069115000},{"open":true,"id":18022,"name":"18022 - BARBES MARCADET","bike_stands":47,"available_bikes":4,"position":{"lat":48.890451,"lng":2.349057},"last_update":1437069075000},{"open":false,"id":21101,"name":"21101 - VALITON (CLICHY)","bike_stands":25,"available_bikes":0,"position":{"lat":48.902492,"lng":2.29784},"last_update":1437068891000},{"open":true,"id":14125,"name":"14125 - DAREAU","bike_stands":24,"available_bikes":0,"position":{"lat":48.830723,"lng":2.336147},"last_update":1437069124000},{"open":true,"id":14115,"name":"14115 - CIT\u00c9 UNIVERSITAIRE","bike_stands":33,"available_bikes":9,"position":{"lat":48.823923,"lng":2.316573},"last_update":1437069069000},{"open":true,"id":17004,"name":"17004 - LEGENDRE AVENUE DE CLICHY","bike_stands":22,"available_bikes":6,"position":{"lat":48.888962,"lng":2.322529},"last_update":1437069062000},{"open":false,"id":17007,"name":"17007 - NAVIER","bike_stands":34,"available_bikes":0,"position":{"lat":48.895914,"lng":2.322727},"last_update":1437068642000},{"open":true,"id":17116,"name":"17116 - REIMS","bike_stands":33,"available_bikes":5,"position":{"lat":48.891834,"lng":2.300145},"last_update":1437068916000},{"open":true,"id":9104,"name":"9104 - CAUMARTIN PROVENCE","bike_stands":23,"available_bikes":0,"position":{"lat":48.874505,"lng":2.328474},"last_update":1437069082000},{"open":true,"id":8008,"name":"08008 - ROME SAINT LAZARE","bike_stands":18,"available_bikes":6,"position":{"lat":48.875353,"lng":2.322884},"last_update":1437069105000},{"open":true,"id":3013,"name":"03013 - RUE DE SEVIGNE","bike_stands":14,"available_bikes":11,"position":{"lat":48.856954,"lng":2.362897},"last_update":1437069058000},{"open":true,"id":13023,"name":"13023 - BOBILLOT VERLAINE","bike_stands":26,"available_bikes":21,"position":{"lat":48.828603,"lng":2.353035},"last_update":1437068887000},{"open":true,"id":43008,"name":"43008 - FONTENAY (VINCENNES)","bike_stands":25,"available_bikes":24,"position":{"lat":48.847791,"lng":2.444691},"last_update":1437068595000},{"open":true,"id":20016,"name":"20016 - PYRENEES VITRUVE","bike_stands":19,"available_bikes":1,"position":{"lat":48.857129,"lng":2.404426},"last_update":1437068992000},{"open":true,"id":18005,"name":"18005 - TARDIEU","bike_stands":17,"available_bikes":1,"position":{"lat":48.884163,"lng":2.34188},"last_update":1437068962000},{"open":true,"id":14106,"name":"14106 - STADE DIDOT","bike_stands":21,"available_bikes":6,"position":{"lat":48.825326,"lng":2.310671},"last_update":1437069001000},{"open":true,"id":20120,"name":"20120 - NOISY LE SEC","bike_stands":30,"available_bikes":3,"position":{"lat":48.873338,"lng":2.41324},"last_update":1437068880000},{"open":true,"id":15107,"name":"15107 -  PALAIS DES SPORTS","bike_stands":43,"available_bikes":38,"position":{"lat":48.833574,"lng":2.28548},"last_update":1437068947000},{"open":true,"id":15013,"name":"15013 - LECOURBE VOLONTAIRE","bike_stands":54,"available_bikes":26,"position":{"lat":48.843543,"lng":2.306559},"last_update":1437068988000},{"open":true,"id":33104,"name":"33104 - JOINEAU (PRE SAINT GERVAIS)","bike_stands":55,"available_bikes":6,"position":{"lat":48.88362,"lng":2.40324},"last_update":1437068996000},{"open":true,"id":4009,"name":"04009 - VILLAGE SAINT PAUL","bike_stands":28,"available_bikes":27,"position":{"lat":48.852726,"lng":2.360878},"last_update":1437068788000},{"open":true,"id":16034,"name":"16034 - PORTE D'AUTEUIL","bike_stands":33,"available_bikes":20,"position":{"lat":48.84795,"lng":2.26066},"last_update":1437068547000},{"open":true,"id":9029,"name":"09029 - TRINITE","bike_stands":39,"available_bikes":1,"position":{"lat":48.876859,"lng":2.332762},"last_update":1437068972000},{"open":true,"id":13022,"name":"13022 - BUTTE AUX CAILLES","bike_stands":36,"available_bikes":30,"position":{"lat":48.827564,"lng":2.349064},"last_update":1437068727000},{"open":true,"id":20018,"name":"20018 - HARPIGNIES","bike_stands":36,"available_bikes":10,"position":{"lat":48.858622,"lng":2.409943},"last_update":1437069095000},{"open":true,"id":8002,"name":"08002 - GARE SAINT LAZARE - COUR DU HAVRE","bike_stands":46,"available_bikes":1,"position":{"lat":48.87572,"lng":2.32668},"last_update":1437069071000},{"open":true,"id":8047,"name":"08047 - GEORGE V","bike_stands":32,"available_bikes":0,"position":{"lat":48.868166,"lng":2.301275},"last_update":1437068839000},{"open":true,"id":33009,"name":"33009 - FELIX (AUBERVILLIERS)","bike_stands":33,"available_bikes":2,"position":{"lat":48.907886,"lng":2.378838},"last_update":1437068944000},{"open":true,"id":11042,"name":"11042 - OBERKAMPF","bike_stands":47,"available_bikes":13,"position":{"lat":48.864649,"lng":2.369261},"last_update":1437069018000},{"open":true,"id":21707,"name":"21707 - PASTEUR (VANVES)","bike_stands":24,"available_bikes":10,"position":{"lat":48.825099,"lng":2.2925},"last_update":1437068929000},{"open":true,"id":15047,"name":"15047 - DANTZIG","bike_stands":52,"available_bikes":31,"position":{"lat":48.83318,"lng":2.299283},"last_update":1437068973000},{"open":true,"id":13121,"name":"13121 - IVRY BRUNESEAU","bike_stands":47,"available_bikes":39,"position":{"lat":48.824953,"lng":2.388581},"last_update":1437069067000},{"open":true,"id":7001,"name":"07001 - DUROC","bike_stands":45,"available_bikes":1,"position":{"lat":48.84777,"lng":2.316184},"last_update":1437069034000},{"open":true,"id":15039,"name":"15039 - CHARLES VALLIN","bike_stands":12,"available_bikes":1,"position":{"lat":48.836058,"lng":2.301866},"last_update":1437069082000},{"open":true,"id":8057,"name":"08057 - HOCHE","bike_stands":33,"available_bikes":0,"position":{"lat":48.874945,"lng":2.297439},"last_update":1437068635000},{"open":true,"id":6001,"name":"06001 - INSTITUT","bike_stands":17,"available_bikes":10,"position":{"lat":48.857616,"lng":2.335831},"last_update":1437068981000},{"open":true,"id":11109,"name":"11109 - REPUBLIQUE PIERRE LEVEE","bike_stands":23,"available_bikes":0,"position":{"lat":48.866331,"lng":2.371097},"last_update":1437068988000},{"open":true,"id":14027,"name":"14027 - ALESIA GERGOVIE","bike_stands":36,"available_bikes":11,"position":{"lat":48.830887,"lng":2.318882},"last_update":1437069035000},{"open":true,"id":16104,"name":"16104 - PAUL VAL\u00c9RY","bike_stands":34,"available_bikes":2,"position":{"lat":48.871361,"lng":2.288866},"last_update":1437069004000},{"open":true,"id":11111,"name":"11111 - CHARONNE FROT","bike_stands":18,"available_bikes":15,"position":{"lat":48.854964,"lng":2.387217},"last_update":1437069110000},{"open":true,"id":18111,"name":"18111 - FELIZ ZIEM","bike_stands":24,"available_bikes":10,"position":{"lat":48.889496,"lng":2.333394},"last_update":1437068714000},{"open":true,"id":14108,"name":"14108 - JOURDAN LE BRIX ET MESNIN","bike_stands":21,"available_bikes":0,"position":{"lat":48.822341,"lng":2.327862},"last_update":1437068622000},{"open":true,"id":8026,"name":"08026 - MESSINE","bike_stands":13,"available_bikes":3,"position":{"lat":48.875457,"lng":2.315465},"last_update":1437068765000},{"open":true,"id":9002,"name":"09002 - MAUBEUGE CONDORCET","bike_stands":15,"available_bikes":3,"position":{"lat":48.879223,"lng":2.349147},"last_update":1437069102000},{"open":true,"id":11019,"name":"11019 - CHARONNE PHILIPPE AUGUSTE","bike_stands":32,"available_bikes":8,"position":{"lat":48.855603,"lng":2.390546},"last_update":1437068931000},{"open":true,"id":19118,"name":"19118 - BOLIVAR BURNOUF","bike_stands":22,"available_bikes":2,"position":{"lat":48.877124,"lng":2.374277},"last_update":1437068993000},{"open":true,"id":5022,"name":"05022 - CARDINAL LEMOINE","bike_stands":17,"available_bikes":1,"position":{"lat":48.846295,"lng":2.352223},"last_update":1437069074000},{"open":true,"id":10009,"name":"10009 - HITTORFF","bike_stands":17,"available_bikes":3,"position":{"lat":48.872084,"lng":2.357664},"last_update":1437069008000},{"open":true,"id":12038,"name":"12038 - BEL AIR","bike_stands":39,"available_bikes":10,"position":{"lat":48.839989,"lng":2.400526},"last_update":1437068822000},{"open":true,"id":14036,"name":"14036 - BOULARD DAGUERRE","bike_stands":43,"available_bikes":1,"position":{"lat":48.834391,"lng":2.329304},"last_update":1437068999000},{"open":true,"id":17005,"name":"17005 - BROCHANT","bike_stands":35,"available_bikes":11,"position":{"lat":48.89033,"lng":2.319731},"last_update":1437068856000},{"open":true,"id":16019,"name":"16019 - HENRI MARTIN","bike_stands":36,"available_bikes":0,"position":{"lat":48.863025,"lng":2.268807},"last_update":1437068707000},{"open":true,"id":18104,"name":"18104 - CHAPELLE","bike_stands":17,"available_bikes":5,"position":{"lat":48.892657,"lng":2.359435},"last_update":1437068685000},{"open":true,"id":13106,"name":"13106 - BOBILLOT MERY","bike_stands":24,"available_bikes":2,"position":{"lat":48.829875,"lng":2.354247},"last_update":1437068730000},{"open":true,"id":21007,"name":"21007 - RHIN DANUBE (BOULOGNE BILLANCOURT)","bike_stands":52,"available_bikes":40,"position":{"lat":48.840649,"lng":2.227979},"last_update":1437068626000},{"open":true,"id":10111,"name":"10111 - BOURSE DU TRAVAIL","bike_stands":21,"available_bikes":20,"position":{"lat":48.873463,"lng":2.364035},"last_update":1437069061000},{"open":true,"id":35008,"name":"35008 - LOLIVE 2 (PANTIN)","bike_stands":30,"available_bikes":1,"position":{"lat":48.89272,"lng":2.41253},"last_update":1437068827000},{"open":true,"id":19109,"name":"19109 - PLACE DU MAROC","bike_stands":19,"available_bikes":2,"position":{"lat":48.886233,"lng":2.368856},"last_update":1437068826000},{"open":true,"id":8048,"name":"08048 - MARCEAU","bike_stands":20,"available_bikes":0,"position":{"lat":48.868852,"lng":2.298514},"last_update":1437068699000},{"open":true,"id":9014,"name":"09014 - FAUBOURG MONTMARTRE","bike_stands":34,"available_bikes":1,"position":{"lat":48.87533,"lng":2.340773},"last_update":1437069041000},{"open":true,"id":9108,"name":"09108 - ROCHECHOUART MAUBEUGE","bike_stands":33,"available_bikes":7,"position":{"lat":48.87789,"lng":2.344786},"last_update":1437068978000},{"open":true,"id":13009,"name":"13009 - BLANQUI CORVISART","bike_stands":25,"available_bikes":24,"position":{"lat":48.829984,"lng":2.350404},"last_update":1437068775000},{"open":true,"id":19006,"name":"19006 - MATHIS","bike_stands":55,"available_bikes":14,"position":{"lat":48.890678,"lng":2.376142},"last_update":1437069102000},{"open":true,"id":17009,"name":"17009 - BODIN AVENUE DE CLICHY","bike_stands":33,"available_bikes":12,"position":{"lat":48.892634,"lng":2.317313},"last_update":1437069056000},{"open":true,"id":12106,"name":"12106 - BARTHES TROYES","bike_stands":69,"available_bikes":0,"position":{"lat":48.843949,"lng":2.379081},"last_update":1437069023000},{"open":false,"id":19125,"name":"19125 - LEDIT DE NANTES","bike_stands":30,"available_bikes":0,"position":{"lat":48.88879,"lng":2.3785},"last_update":1437068805000},{"open":true,"id":42703,"name":"42703 - FONTAINEBLEAU (KREMLIN BICETRE)","bike_stands":45,"available_bikes":6,"position":{"lat":48.809582,"lng":2.362684},"last_update":1437068530000},{"open":true,"id":8016,"name":"08016 - SQUARE LOUIS XVI","bike_stands":39,"available_bikes":10,"position":{"lat":48.873204,"lng":2.323659},"last_update":1437069072000},{"open":true,"id":15025,"name":"15025 - AMETTE","bike_stands":48,"available_bikes":12,"position":{"lat":48.851454,"lng":2.29671},"last_update":1437069066000},{"open":true,"id":5031,"name":"05031 - LACEPEDE","bike_stands":55,"available_bikes":3,"position":{"lat":48.843675,"lng":2.354616},"last_update":1437069015000},{"open":true,"id":6008,"name":"06008 - ASSAS LUXEMBOURG","bike_stands":33,"available_bikes":0,"position":{"lat":48.843734,"lng":2.333428},"last_update":1437068543000},{"open":true,"id":1116,"name":"01116 - OP\u00c9RA PYRAMIDES","bike_stands":27,"available_bikes":13,"position":{"lat":48.866811,"lng":2.334388},"last_update":1437069117000},{"open":true,"id":15033,"name":"15033 - VIOLET","bike_stands":48,"available_bikes":12,"position":{"lat":48.84479,"lng":2.290542},"last_update":1437069089000},{"open":true,"id":12130,"name":"12130 - NOGENT - PORTE JAUNE","bike_stands":40,"available_bikes":30,"position":{"lat":48.83884,"lng":2.46031},"last_update":1437068609000},{"open":true,"id":19035,"name":"19035 - PORTE CHAUMONT","bike_stands":21,"available_bikes":0,"position":{"lat":48.885733,"lng":2.397846},"last_update":1437068907000},{"open":true,"id":19001,"name":"19001 - OURCQ CRIMEE","bike_stands":56,"available_bikes":27,"position":{"lat":48.894104,"lng":2.372946},"last_update":1437068962000},{"open":true,"id":41603,"name":"41603 - PASTEUR (SAINT MANDE)","bike_stands":19,"available_bikes":0,"position":{"lat":48.845779,"lng":2.423771},"last_update":1437068852000},{"open":true,"id":18041,"name":"18041 - MARTYRS 2","bike_stands":20,"available_bikes":1,"position":{"lat":48.882194,"lng":2.340652},"last_update":1437069038000},{"open":true,"id":20119,"name":"20119 - SQUARE DE MENILMONTANT","bike_stands":25,"available_bikes":1,"position":{"lat":48.870136,"lng":2.396691},"last_update":1437068745000},{"open":true,"id":20047,"name":"20047 - COURS DE VINCENNES BD DAVOUT","bike_stands":48,"available_bikes":3,"position":{"lat":48.847331,"lng":2.41039},"last_update":1437069098000},{"open":true,"id":15026,"name":"15026 - BIR HAKEIM","bike_stands":32,"available_bikes":9,"position":{"lat":48.853844,"lng":2.289705},"last_update":1437069081000},{"open":true,"id":2022,"name":"02022 - BONNE NOUVELLE SAINT FIACRE","bike_stands":36,"available_bikes":0,"position":{"lat":48.870783,"lng":2.345906},"last_update":1437068875000},{"open":true,"id":20006,"name":"20006 - PYR\u00c9N\u00c9ES - PLAINE","bike_stands":12,"available_bikes":7,"position":{"lat":48.850285,"lng":2.406296},"last_update":1437068709000},{"open":true,"id":16044,"name":"16044 - STADE FRANCAIS","bike_stands":32,"available_bikes":22,"position":{"lat":48.838713,"lng":2.252191},"last_update":1437068830000},{"open":true,"id":17033,"name":"17033 - CARNOT","bike_stands":32,"available_bikes":0,"position":{"lat":48.875538,"lng":2.293732},"last_update":1437068669000},{"open":true,"id":20035,"name":"20035 - PYRENEES","bike_stands":26,"available_bikes":0,"position":{"lat":48.869413,"lng":2.39504},"last_update":1437069078000},{"open":true,"id":18040,"name":"18040 - CHAPELLE MARX DORMOY","bike_stands":23,"available_bikes":2,"position":{"lat":48.88457,"lng":2.360216},"last_update":1437068972000},{"open":true,"id":10021,"name":"10021 - MARCHE ST QUENTIN","bike_stands":15,"available_bikes":4,"position":{"lat":48.877356,"lng":2.354511},"last_update":1437069108000},{"open":true,"id":10006,"name":"10006 - PETITES ECURIES","bike_stands":28,"available_bikes":12,"position":{"lat":48.87294,"lng":2.354034},"last_update":1437069103000},{"open":true,"id":18026,"name":"18026 - RUISSEAU ORDENER","bike_stands":33,"available_bikes":3,"position":{"lat":48.892895,"lng":2.34012},"last_update":1437068911000},{"open":true,"id":16016,"name":"16016 - PAUL DOUMER / LA TOUR","bike_stands":33,"available_bikes":1,"position":{"lat":48.860116,"lng":2.28084},"last_update":1437068834000},{"open":false,"id":19009,"name":"19009 - CITE DES SCIENCES","bike_stands":30,"available_bikes":0,"position":{"lat":48.896549,"lng":2.38465},"last_update":1437068344000},{"open":true,"id":19101,"name":"19101 - SIMON BOLIVAR","bike_stands":24,"available_bikes":1,"position":{"lat":48.87507,"lng":2.382592},"last_update":1437068775000},{"open":false,"id":17044,"name":"17044 - PORTE DE SAINT OUEN","bike_stands":42,"available_bikes":0,"position":{"lat":48.897922,"lng":2.328515},"last_update":1437068993000},{"open":true,"id":12107,"name":"12107 - DIDEROT BOURDAN","bike_stands":21,"available_bikes":18,"position":{"lat":48.847654,"lng":2.390239},"last_update":1437069008000},{"open":true,"id":7014,"name":"07014 - SAINT FRANCOIS XAVIER","bike_stands":42,"available_bikes":7,"position":{"lat":48.851678,"lng":2.314634},"last_update":1437069097000},{"open":true,"id":14001,"name":"14001 - EDGAR QUINET","bike_stands":27,"available_bikes":6,"position":{"lat":48.841156,"lng":2.324449},"last_update":1437068830000},{"open":true,"id":12021,"name":"12021 - COURTELINE","bike_stands":50,"available_bikes":32,"position":{"lat":48.844373,"lng":2.410972},"last_update":1437068972000},{"open":true,"id":3009,"name":"03009 - TEMPLE 113","bike_stands":18,"available_bikes":18,"position":{"lat":48.861581,"lng":2.356609},"last_update":1437069028000},{"open":true,"id":3004,"name":"03004 - REPUBLIQUE 23","bike_stands":18,"available_bikes":1,"position":{"lat":48.86707,"lng":2.36351},"last_update":1437069073000},{"open":true,"id":19105,"name":"19105 - PORTE BRUNET","bike_stands":17,"available_bikes":1,"position":{"lat":48.883659,"lng":2.39572},"last_update":1437068672000},{"open":true,"id":18001,"name":"18001 - DAMREMONT CAULAINCOURT","bike_stands":18,"available_bikes":6,"position":{"lat":48.887275,"lng":2.332648},"last_update":1437069025000},{"open":true,"id":20030,"name":"20030 - PERE LACHAISE","bike_stands":56,"available_bikes":2,"position":{"lat":48.863411,"lng":2.387134},"last_update":1437069088000},{"open":true,"id":2020,"name":"02020 - OPERA CASANOVA","bike_stands":20,"available_bikes":0,"position":{"lat":48.867623,"lng":2.333269},"last_update":1437069101000},{"open":true,"id":14104,"name":"14104 - LOSSERAND BOYER-BARRET","bike_stands":22,"available_bikes":8,"position":{"lat":48.833139,"lng":2.317377},"last_update":1437068848000},{"open":true,"id":11004,"name":"11004 - CHARONNE SAINT ANTOINE","bike_stands":32,"available_bikes":5,"position":{"lat":48.852255,"lng":2.374027},"last_update":1437069080000},{"open":true,"id":16022,"name":"16022 - RUE JEAN BOLOGNE","bike_stands":17,"available_bikes":0,"position":{"lat":48.857567,"lng":2.280027},"last_update":1437068661000},{"open":true,"id":19106,"name":"19106 - GARE EMGP","bike_stands":30,"available_bikes":1,"position":{"lat":48.90162,"lng":2.37267},"last_update":1437068797000},{"open":true,"id":13010,"name":"13010 - PLACE D ITALIE AURIOL","bike_stands":40,"available_bikes":10,"position":{"lat":48.831583,"lng":2.356708},"last_update":1437069123000},{"open":true,"id":17107,"name":"17107 - BERTHIER STUART MERRIL","bike_stands":36,"available_bikes":2,"position":{"lat":48.885913,"lng":2.293234},"last_update":1437068834000},{"open":false,"id":13101,"name":"13101 - CROULEBARBE RECULETTES","bike_stands":34,"available_bikes":0,"position":{"lat":48.831122,"lng":2.348109},"last_update":1437064533000},{"open":false,"id":42503,"name":"42503 - LENINE (GENTILLY)","bike_stands":30,"available_bikes":0,"position":{"lat":48.813157,"lng":2.332055},"last_update":1437068719000},{"open":true,"id":13151,"name":"13151 - GARE D'AUSTERLITZ","bike_stands":55,"available_bikes":28,"position":{"lat":48.840577,"lng":2.366124},"last_update":1437069109000},{"open":true,"id":8029,"name":"08029 - PLACE DU CANADA","bike_stands":36,"available_bikes":8,"position":{"lat":48.865346,"lng":2.310194},"last_update":1437068979000},{"open":true,"id":15034,"name":"15034 - COMMERCE","bike_stands":55,"available_bikes":9,"position":{"lat":48.844426,"lng":2.294041},"last_update":1437068933000},{"open":true,"id":3003,"name":"03003 - TURENNE BRETAGNE","bike_stands":32,"available_bikes":27,"position":{"lat":48.862132,"lng":2.364951},"last_update":1437069122000},{"open":true,"id":13046,"name":"13046 - OUDINE PATAY","bike_stands":44,"available_bikes":39,"position":{"lat":48.825713,"lng":2.375044},"last_update":1437068688000},{"open":true,"id":20023,"name":"20023 - PELLEPORT BELGRAND","bike_stands":15,"available_bikes":0,"position":{"lat":48.865001,"lng":2.403981},"last_update":1437068617000},{"open":true,"id":1012,"name":"01012 - BOURSE DU COMMERCE","bike_stands":22,"available_bikes":20,"position":{"lat":48.862998,"lng":2.341555},"last_update":1437068702000},{"open":true,"id":13111,"name":"13111 - CIMETIERE DE GENTILLY","bike_stands":54,"available_bikes":25,"position":{"lat":48.818574,"lng":2.35326},"last_update":1437068749000},{"open":true,"id":42008,"name":"42008 - CASANOVA (IVRY)","bike_stands":25,"available_bikes":24,"position":{"lat":48.814206,"lng":2.384207},"last_update":1437069114000},{"open":true,"id":12041,"name":"12041 - BOIS DE VINCENNES","bike_stands":58,"available_bikes":23,"position":{"lat":48.833655,"lng":2.413464},"last_update":1437068931000},{"open":true,"id":34001,"name":"34001 - FRUCTIDOR (SAINT OUEN)","bike_stands":24,"available_bikes":1,"position":{"lat":48.90089,"lng":2.32482},"last_update":1437068674000},{"open":true,"id":21104,"name":"21104 - SANZILLON (CLICHY)","bike_stands":22,"available_bikes":0,"position":{"lat":48.903677,"lng":2.319177},"last_update":1437069007000},{"open":true,"id":11009,"name":"11009 - RUE DES BOULETS","bike_stands":23,"available_bikes":7,"position":{"lat":48.852193,"lng":2.389022},"last_update":1437069097000},{"open":true,"id":19031,"name":"19031 - MANIN CRIMEE","bike_stands":23,"available_bikes":14,"position":{"lat":48.88303,"lng":2.386349},"last_update":1437069034000},{"open":true,"id":23010,"name":"23010 - VOLTAIRE (LEVALLOIS)","bike_stands":25,"available_bikes":1,"position":{"lat":48.891962,"lng":2.284205},"last_update":1437069119000},{"open":true,"id":13031,"name":"13031 - ITALIE MAISON BLANCHE","bike_stands":31,"available_bikes":13,"position":{"lat":48.821159,"lng":2.358701},"last_update":1437068987000},{"open":true,"id":9017,"name":"09017 - TRUDAINE MARTYRS","bike_stands":29,"available_bikes":1,"position":{"lat":48.881032,"lng":2.340774},"last_update":1437068937000},{"open":true,"id":12026,"name":"12026 - PARC DE BERCY","bike_stands":36,"available_bikes":29,"position":{"lat":48.837721,"lng":2.382217},"last_update":1437068932000},{"open":true,"id":12012,"name":"12012 - REUILLY DIDEROT","bike_stands":21,"available_bikes":20,"position":{"lat":48.847296,"lng":2.385708},"last_update":1437069036000},{"open":true,"id":5026,"name":"05026 - MOUFFETARD SAINT MEDARD","bike_stands":49,"available_bikes":20,"position":{"lat":48.838994,"lng":2.349932},"last_update":1437069037000},{"open":true,"id":11045,"name":"11045 - SAINT SEBASTIEN FROISSARD","bike_stands":42,"available_bikes":9,"position":{"lat":48.861205,"lng":2.367352},"last_update":1437069081000},{"open":true,"id":32602,"name":"32602 - POULMARCH (LES LILAS)","bike_stands":56,"available_bikes":16,"position":{"lat":48.8794,"lng":2.416161},"last_update":1437068875000},{"open":true,"id":18046,"name":"18046 - FOURCHE","bike_stands":33,"available_bikes":0,"position":{"lat":48.88794,"lng":2.326124},"last_update":1437069007000},{"open":true,"id":10014,"name":"10014 - BEAUREPAIRE","bike_stands":56,"available_bikes":19,"position":{"lat":48.871663,"lng":2.363933},"last_update":1437069118000},{"open":true,"id":19115,"name":"19115 - PORTE DE LA VILLETTE","bike_stands":27,"available_bikes":9,"position":{"lat":48.89849,"lng":2.38612},"last_update":1437068947000},{"open":true,"id":12113,"name":"12113 - CARDINAL LAVIGERIE","bike_stands":46,"available_bikes":11,"position":{"lat":48.832934,"lng":2.402637},"last_update":1437068762000},{"open":true,"id":20042,"name":"20042 - PYRENEES ERMITAGE","bike_stands":47,"available_bikes":1,"position":{"lat":48.872157,"lng":2.391739},"last_update":1437069074000},{"open":true,"id":7023,"name":"07023 - BOURDONNAIS TOUR EIFFEL","bike_stands":60,"available_bikes":32,"position":{"lat":48.860898,"lng":2.2956},"last_update":1437069015000},{"open":true,"id":18113,"name":"18113 - LEPIC","bike_stands":22,"available_bikes":4,"position":{"lat":48.887573,"lng":2.334327},"last_update":1437068934000},{"open":true,"id":19027,"name":"19027 - SERRURIER","bike_stands":18,"available_bikes":2,"position":{"lat":48.880606,"lng":2.397896},"last_update":1437068762000},{"open":true,"id":33102,"name":"33102 - JAURES 1 (PRE SAINT GERVAIS)","bike_stands":18,"available_bikes":2,"position":{"lat":48.886527,"lng":2.407469},"last_update":1437068822000},{"open":true,"id":19026,"name":"19026 - DANUBE","bike_stands":16,"available_bikes":3,"position":{"lat":48.881953,"lng":2.392496},"last_update":1437069102000},{"open":true,"id":17028,"name":"17028 - PORTE DE COURCELLE","bike_stands":36,"available_bikes":7,"position":{"lat":48.8888,"lng":2.29632},"last_update":1437069011000},{"open":true,"id":17030,"name":"17030 - RENNEQUIN PEREIRE","bike_stands":23,"available_bikes":0,"position":{"lat":48.883639,"lng":2.295152},"last_update":1437069074000},{"open":true,"id":10017,"name":"10017 - GARE DE L'EST SAINT LAURENT","bike_stands":13,"available_bikes":0,"position":{"lat":48.874575,"lng":2.356797},"last_update":1437068859000},{"open":true,"id":15103,"name":"15103 - SQUARE DES C\u00c9VENNES","bike_stands":49,"available_bikes":19,"position":{"lat":48.843417,"lng":2.275108},"last_update":1437069113000},{"open":true,"id":19025,"name":"19025 - BOTZARIS","bike_stands":17,"available_bikes":3,"position":{"lat":48.879561,"lng":2.38896},"last_update":1437068719000},{"open":true,"id":8033,"name":"08033 - SAINT PHILIPPE DU ROULE","bike_stands":27,"available_bikes":3,"position":{"lat":48.872788,"lng":2.309723},"last_update":1437068907000},{"open":true,"id":4018,"name":"04018 - RIVOLI SEBASTOPOL","bike_stands":19,"available_bikes":18,"position":{"lat":48.858,"lng":2.350217},"last_update":1437069104000},{"open":true,"id":16118,"name":"16118 - MICHEL ANGE","bike_stands":26,"available_bikes":11,"position":{"lat":48.84061,"lng":2.258374},"last_update":1437068702000},{"open":true,"id":2107,"name":"02107 - THOREL","bike_stands":16,"available_bikes":2,"position":{"lat":48.870001,"lng":2.348996},"last_update":1437068988000},{"open":true,"id":42706,"name":"42706 - SALENGRO (KREMLIN BICETRE)","bike_stands":30,"available_bikes":11,"position":{"lat":48.814662,"lng":2.361346},"last_update":1437069050000},{"open":true,"id":12128,"name":"12128 - ROUTE DE LA PYRAMIDE- ECOLE DU BREUIL","bike_stands":33,"available_bikes":6,"position":{"lat":48.82256,"lng":2.45877},"last_update":1437069073000},{"open":true,"id":20025,"name":"20025 - GAMBETTA GATINES","bike_stands":24,"available_bikes":0,"position":{"lat":48.865394,"lng":2.397814},"last_update":1437069104000},{"open":true,"id":28003,"name":"28003 - JAURES (PUTEAUX)","bike_stands":35,"available_bikes":18,"position":{"lat":48.880471,"lng":2.237362},"last_update":1437068627000},{"open":true,"id":14009,"name":"14009 - COTY TOMBE D'ISSOIRE","bike_stands":36,"available_bikes":1,"position":{"lat":48.830556,"lng":2.333783},"last_update":1437068839000},{"open":true,"id":11035,"name":"11035 - GONCOURT","bike_stands":53,"available_bikes":5,"position":{"lat":48.86947,"lng":2.371537},"last_update":1437069108000},{"open":true,"id":18101,"name":"18101 - CHAMPIONNET","bike_stands":22,"available_bikes":1,"position":{"lat":48.89547,"lng":2.349865},"last_update":1437068992000},{"open":false,"id":19123,"name":"19123 - QUAI DE METZ","bike_stands":33,"available_bikes":0,"position":{"lat":48.89106,"lng":2.3865},"last_update":1437069111000},{"open":true,"id":15011,"name":"15011 - THEBAUD RUE DE CAMBRONNE","bike_stands":62,"available_bikes":14,"position":{"lat":48.845831,"lng":2.301753},"last_update":1437069119000},{"open":true,"id":12033,"name":"12033 - SAINT EMILION","bike_stands":66,"available_bikes":5,"position":{"lat":48.833508,"lng":2.386133},"last_update":1437069107000},{"open":true,"id":9034,"name":"09034 - GODOT DE MAUROY","bike_stands":22,"available_bikes":3,"position":{"lat":48.869957,"lng":2.3266},"last_update":1437068829000},{"open":true,"id":14035,"name":"14035 - MAINE GAITE","bike_stands":48,"available_bikes":16,"position":{"lat":48.837884,"lng":2.322552},"last_update":1437068959000},{"open":true,"id":21009,"name":"21009 - LECORBUSIER (BOULOGNE-BILLANCOURT)","bike_stands":46,"available_bikes":14,"position":{"lat":48.837998,"lng":2.240847},"last_update":1437069089000},{"open":true,"id":17023,"name":"17023 - AVENUE DE LA PORTE D'ASNI\u00c8RES","bike_stands":36,"available_bikes":9,"position":{"lat":48.890586,"lng":2.303457},"last_update":1437068934000},{"open":true,"id":20039,"name":"20039 - COURONNES","bike_stands":48,"available_bikes":12,"position":{"lat":48.868941,"lng":2.381283},"last_update":1437069122000},{"open":true,"id":16010,"name":"16010 - BELLES FEUILLES","bike_stands":23,"available_bikes":1,"position":{"lat":48.865855,"lng":2.28286},"last_update":1437068900000},{"open":true,"id":8052,"name":"08052 - WASHINGTON","bike_stands":30,"available_bikes":1,"position":{"lat":48.872883,"lng":2.299973},"last_update":1437069036000},{"open":true,"id":17026,"name":"17026 - WAGRAM COURCELLES","bike_stands":41,"available_bikes":0,"position":{"lat":48.881857,"lng":2.301138},"last_update":1437068914000},{"open":true,"id":42702,"name":"42702 - LECLERC (KREMLIN BICETRE)","bike_stands":20,"available_bikes":5,"position":{"lat":48.810477,"lng":2.358173},"last_update":1437069113000},{"open":true,"id":14110,"name":"14110 - ABBE CARTON","bike_stands":24,"available_bikes":6,"position":{"lat":48.827746,"lng":2.320714},"last_update":1437068928000},{"open":true,"id":10152,"name":"10152 - GARE DU NORD 2","bike_stands":25,"available_bikes":3,"position":{"lat":48.879049,"lng":2.354159},"last_update":1437069115000},{"open":true,"id":14107,"name":"14107 - PORTE DE MONTROUGE 2","bike_stands":33,"available_bikes":8,"position":{"lat":48.823416,"lng":2.322937},"last_update":1437068996000},{"open":true,"id":15031,"name":"15031 - THEATRE","bike_stands":53,"available_bikes":24,"position":{"lat":48.84817,"lng":2.289907},"last_update":1437069051000},{"open":true,"id":11010,"name":"11010 - ST ANTOINE GONNET","bike_stands":41,"available_bikes":20,"position":{"lat":48.849259,"lng":2.391755},"last_update":1437069121000},{"open":true,"id":7021,"name":"07021 - BOSQUET SAINT DOMINIQUE","bike_stands":50,"available_bikes":11,"position":{"lat":48.858652,"lng":2.303717},"last_update":1437068943000},{"open":true,"id":16005,"name":"16005 - POINCARE VICTOR HUGO","bike_stands":25,"available_bikes":0,"position":{"lat":48.870306,"lng":2.285075},"last_update":1437069015000},{"open":true,"id":21303,"name":"21303 - ILES (ISSY LES MOULINEAUX)","bike_stands":31,"available_bikes":11,"position":{"lat":48.823451,"lng":2.249665},"last_update":1437068895000},{"open":true,"id":15041,"name":"15041 - LABROUSTE","bike_stands":36,"available_bikes":33,"position":{"lat":48.832854,"lng":2.306898},"last_update":1437068714000},{"open":true,"id":13055,"name":"13055 - LAGROUA","bike_stands":61,"available_bikes":30,"position":{"lat":48.828595,"lng":2.380221},"last_update":1437069122000},{"open":true,"id":21021,"name":"21021 - PARADIS (BOULOGNE-BILLANCOURT)","bike_stands":40,"available_bikes":1,"position":{"lat":48.833175,"lng":2.257006},"last_update":1437068975000},{"open":true,"id":10025,"name":"10025 - ECLUSES SAINT MARTIN","bike_stands":15,"available_bikes":7,"position":{"lat":48.87742,"lng":2.366011},"last_update":1437068964000},{"open":true,"id":20121,"name":"20121 - MENILMONTANT BOYER","bike_stands":18,"available_bikes":0,"position":{"lat":48.86891,"lng":2.39202},"last_update":1437068541000},{"open":false,"id":19011,"name":"19011 - ROUVET DAMPIERRE","bike_stands":15,"available_bikes":0,"position":{"lat":48.89338,"lng":2.385},"last_update":1437068813000},{"open":true,"id":13038,"name":"13038 - CHOISY POINT D'IVRY","bike_stands":24,"available_bikes":14,"position":{"lat":48.821908,"lng":2.363335},"last_update":1437069054000},{"open":true,"id":1016,"name":"01016 - OPERA PYRAMIDES","bike_stands":25,"available_bikes":12,"position":{"lat":48.866484,"lng":2.334433},"last_update":1437069105000},{"open":true,"id":1102,"name":"01102 - FRANCAISE","bike_stands":18,"available_bikes":16,"position":{"lat":48.864065,"lng":2.347598},"last_update":1437069057000},{"open":true,"id":16025,"name":"16025 - FONTAINE RAYNOUARD","bike_stands":69,"available_bikes":32,"position":{"lat":48.852787,"lng":2.275581},"last_update":1437069049000},{"open":true,"id":16017,"name":"16017 - RUE DE SIAM","bike_stands":16,"available_bikes":0,"position":{"lat":48.86172,"lng":2.275347},"last_update":1437069083000},{"open":true,"id":22101,"name":"22101 - GARE ROUTIERE ( SAINT CLOUD)","bike_stands":50,"available_bikes":13,"position":{"lat":48.843126,"lng":2.222189},"last_update":1437069115000},{"open":true,"id":20131,"name":"20131 - REPOS","bike_stands":33,"available_bikes":11,"position":{"lat":48.859359,"lng":2.389613},"last_update":1437068812000},{"open":true,"id":1003,"name":"01003 - RIVOLI SAINT DENIS","bike_stands":50,"available_bikes":43,"position":{"lat":48.85915,"lng":2.34762},"last_update":1437069122000},{"open":true,"id":17001,"name":"17001 - GUY MOQUET","bike_stands":45,"available_bikes":14,"position":{"lat":48.892823,"lng":2.326803},"last_update":1437069084000},{"open":true,"id":1010,"name":"01010 - PONT NEUF","bike_stands":25,"available_bikes":25,"position":{"lat":48.859462,"lng":2.344366},"last_update":1437068875000},{"open":true,"id":17016,"name":"17016 - BROCHANT","bike_stands":21,"available_bikes":6,"position":{"lat":48.888187,"lng":2.316861},"last_update":1437068983000},{"open":true,"id":11002,"name":"11002 - ROQUETTE THIERE","bike_stands":23,"available_bikes":21,"position":{"lat":48.855106,"lng":2.373425},"last_update":1437069101000},{"open":true,"id":13120,"name":"13120 - VITRY DESAULT","bike_stands":19,"available_bikes":14,"position":{"lat":48.821139,"lng":2.378719},"last_update":1437068921000},{"open":true,"id":8004,"name":"08004 - MALESHERBES PASQUIER","bike_stands":64,"available_bikes":16,"position":{"lat":48.870422,"lng":2.323289},"last_update":1437069109000},{"open":true,"id":20113,"name":"20113 - PARC DE BELLEVILLE","bike_stands":21,"available_bikes":0,"position":{"lat":48.871956,"lng":2.384981},"last_update":1437068958000},{"open":true,"id":10036,"name":"10036 - AQUEDUC","bike_stands":29,"available_bikes":8,"position":{"lat":48.883843,"lng":2.367111},"last_update":1437069014000},{"open":true,"id":42207,"name":"42207 - PARIS 3 (CHARENTON)","bike_stands":28,"available_bikes":22,"position":{"lat":48.826657,"lng":2.405877},"last_update":1437068803000},{"open":true,"id":12028,"name":"12028 - VIVALDI","bike_stands":27,"available_bikes":1,"position":{"lat":48.841924,"lng":2.389729},"last_update":1437069121000},{"open":true,"id":5008,"name":"05008 - ST GERMAIN-DANTE","bike_stands":20,"available_bikes":18,"position":{"lat":48.850977,"lng":2.346077},"last_update":1437069074000},{"open":true,"id":2003,"name":"02003 - ALLEE PIERRE LAZAEFF","bike_stands":31,"available_bikes":4,"position":{"lat":48.866146,"lng":2.350845},"last_update":1437069114000},{"open":true,"id":1026,"name":"01026 - COLONEL DRIANT","bike_stands":31,"available_bikes":2,"position":{"lat":48.863431,"lng":2.34017},"last_update":1437069050000},{"open":true,"id":20112,"name":"20112 - JOURDAIN","bike_stands":20,"available_bikes":4,"position":{"lat":48.874092,"lng":2.389436},"last_update":1437068728000},{"open":true,"id":16101,"name":"16101 - MALAKOFF","bike_stands":34,"available_bikes":0,"position":{"lat":48.876693,"lng":2.283458},"last_update":1437068654000},{"open":true,"id":17110,"name":"17110 - LEGENDRE","bike_stands":29,"available_bikes":3,"position":{"lat":48.887772,"lng":2.320368},"last_update":1437068991000},{"open":true,"id":15120,"name":"15120 - AVIA","bike_stands":29,"available_bikes":23,"position":{"lat":48.829684,"lng":2.275343},"last_update":1437069015000},{"open":true,"id":10114,"name":"10114 - HOPITAL SAINT LOUIS","bike_stands":59,"available_bikes":13,"position":{"lat":48.874795,"lng":2.366669},"last_update":1437069100000},{"open":true,"id":17031,"name":"17031 - PORTE DE CHAMPERET","bike_stands":27,"available_bikes":5,"position":{"lat":48.885617,"lng":2.290781},"last_update":1437068696000},{"open":true,"id":6021,"name":"06021 - BONAPARTE BEAUX ARTS","bike_stands":19,"available_bikes":3,"position":{"lat":48.856437,"lng":2.334798},"last_update":1437068690000},{"open":true,"id":16031,"name":"16031 - BOULAINVILLIERS","bike_stands":20,"available_bikes":1,"position":{"lat":48.856151,"lng":2.275188},"last_update":1437068796000},{"open":true,"id":16103,"name":"16103 - TRAKTIR","bike_stands":21,"available_bikes":4,"position":{"lat":48.872799,"lng":2.291508},"last_update":1437068565000},{"open":true,"id":6027,"name":"06027 - VAUGIRARD DESGOFFE","bike_stands":31,"available_bikes":1,"position":{"lat":48.84613,"lng":2.324241},"last_update":1437069096000},{"open":true,"id":8030,"name":"08030 - MONTAIGNE","bike_stands":35,"available_bikes":10,"position":{"lat":48.867293,"lng":2.307692},"last_update":1437069114000},{"open":true,"id":4105,"name":"04105 - MORLAND","bike_stands":36,"available_bikes":5,"position":{"lat":48.84996,"lng":2.36324},"last_update":1437069122000},{"open":true,"id":20044,"name":"20044 - DAVOUT VOLGA","bike_stands":27,"available_bikes":6,"position":{"lat":48.85292,"lng":2.410523},"last_update":1437069073000},{"open":true,"id":12120,"name":"12120 - CONSERVATION","bike_stands":50,"available_bikes":4,"position":{"lat":48.827725,"lng":2.418272},"last_update":1437069070000},{"open":true,"id":16018,"name":"16018 - FLANDRIN","bike_stands":17,"available_bikes":1,"position":{"lat":48.864411,"lng":2.272449},"last_update":1437069034000},{"open":true,"id":13042,"name":"13042 - NATIONALE BACH","bike_stands":36,"available_bikes":31,"position":{"lat":48.830957,"lng":2.364107},"last_update":1437069123000},{"open":true,"id":41302,"name":"41302 - CHARLES DE GAULLE (NOGENT)","bike_stands":50,"available_bikes":45,"position":{"lat":48.836481,"lng":2.479464},"last_update":1437069095000},{"open":true,"id":23004,"name":"23004 - COUTURIER 2 (LEVALLOIS)","bike_stands":35,"available_bikes":1,"position":{"lat":48.898197,"lng":2.293848},"last_update":1437069111000},{"open":true,"id":12109,"name":"12109 - CHAROLAIS","bike_stands":30,"available_bikes":20,"position":{"lat":48.840869,"lng":2.387564},"last_update":1437068976000},{"open":true,"id":9030,"name":"09030 - VICTOIR CHAUSSEE D ANTIN","bike_stands":44,"available_bikes":1,"position":{"lat":48.875186,"lng":2.332036},"last_update":1437068844000},{"open":true,"id":18017,"name":"18017 - PECQUEUR","bike_stands":38,"available_bikes":5,"position":{"lat":48.889678,"lng":2.338179},"last_update":1437068859000},{"open":true,"id":18107,"name":"18107 - CHARTRES","bike_stands":33,"available_bikes":1,"position":{"lat":48.884707,"lng":2.35358},"last_update":1437069113000},{"open":true,"id":15008,"name":"15008 - SEVRES LECOURBE","bike_stands":62,"available_bikes":4,"position":{"lat":48.844838,"lng":2.311086},"last_update":1437069076000},{"open":true,"id":7018,"name":"07018 - SEGUR ESTREES","bike_stands":18,"available_bikes":3,"position":{"lat":48.851294,"lng":2.309748},"last_update":1437068996000},{"open":false,"id":19044,"name":"19044 - GRANDS MOULINS","bike_stands":50,"available_bikes":0,"position":{"lat":48.89713,"lng":2.396079},"last_update":1437068935000},{"open":true,"id":10012,"name":"10012 - VINAIGRIERS","bike_stands":24,"available_bikes":2,"position":{"lat":48.873268,"lng":2.359324},"last_update":1437069082000},{"open":true,"id":7022,"name":"07022 - PONT DE L'ALMA","bike_stands":69,"available_bikes":1,"position":{"lat":48.86164,"lng":2.30225},"last_update":1437069083000},{"open":true,"id":35012,"name":"35012 - CANDALE (PANTIN)","bike_stands":25,"available_bikes":7,"position":{"lat":48.889486,"lng":2.414308},"last_update":1437068628000},{"open":true,"id":1009,"name":"01009 - PONT NEUF - 14","bike_stands":24,"available_bikes":23,"position":{"lat":48.860245,"lng":2.344334},"last_update":1437069115000},{"open":true,"id":15051,"name":"15051 - ROLLET","bike_stands":8,"available_bikes":8,"position":{"lat":48.835981,"lng":2.293467},"last_update":1437068840000},{"open":true,"id":20107,"name":"20107 - STADE MARYSE HILSZ","bike_stands":23,"available_bikes":12,"position":{"lat":48.851285,"lng":2.412734},"last_update":1437068840000},{"open":true,"id":8012,"name":"08012 - CLICHY","bike_stands":47,"available_bikes":2,"position":{"lat":48.883318,"lng":2.326207},"last_update":1437069023000},{"open":true,"id":3012,"name":"03012 - GAITE LYRIQUE","bike_stands":24,"available_bikes":1,"position":{"lat":48.867498,"lng":2.353661},"last_update":1437069097000},{"open":true,"id":10105,"name":"10105 - BONNE NOUVELLE PROP2","bike_stands":24,"available_bikes":2,"position":{"lat":48.870278,"lng":2.351282},"last_update":1437069027000},{"open":true,"id":9033,"name":"09033 - HAVRE CAUMARTIN","bike_stands":51,"available_bikes":16,"position":{"lat":48.872795,"lng":2.328316},"last_update":1437068806000},{"open":true,"id":14116,"name":"14116 - ROMAIN ROLLAND","bike_stands":25,"available_bikes":10,"position":{"lat":48.820324,"lng":2.323003},"last_update":1437068748000},{"open":true,"id":12027,"name":"12027 - MONTGALLET CHARENTON","bike_stands":16,"available_bikes":13,"position":{"lat":48.842648,"lng":2.386165},"last_update":1437069122000},{"open":true,"id":13034,"name":"13034 - EDISON","bike_stands":18,"available_bikes":13,"position":{"lat":48.829027,"lng":2.361069},"last_update":1437068780000},{"open":true,"id":9026,"name":"09026 - BRUYERE PIGALLE","bike_stands":17,"available_bikes":0,"position":{"lat":48.879398,"lng":2.333709},"last_update":1437068935000},{"open":true,"id":17013,"name":"17013 - LEGENDRE","bike_stands":22,"available_bikes":1,"position":{"lat":48.885438,"lng":2.316474},"last_update":1437068969000},{"open":true,"id":31004,"name":"31004 - PARIS 2 (MONTREUIL)","bike_stands":46,"available_bikes":3,"position":{"lat":48.855501,"lng":2.422056},"last_update":1437069002000},{"open":true,"id":9106,"name":"09106 - AUBER","bike_stands":15,"available_bikes":1,"position":{"lat":48.87219,"lng":2.329423},"last_update":1437068819000},{"open":true,"id":16028,"name":"16028 - MILLET - JEAN DE LA FONTAINE","bike_stands":66,"available_bikes":36,"position":{"lat":48.851005,"lng":2.272469},"last_update":1437069008000},{"open":true,"id":18034,"name":"18034 - LEIBNITZ","bike_stands":41,"available_bikes":20,"position":{"lat":48.896328,"lng":2.33339},"last_update":1437068710000},{"open":true,"id":5010,"name":"05010 - SAINT MICHEL HENRI BARBUSSE","bike_stands":15,"available_bikes":0,"position":{"lat":48.843757,"lng":2.339307},"last_update":1437068986000},{"open":true,"id":12102,"name":"12102 - DIDEROT BERCY","bike_stands":30,"available_bikes":0,"position":{"lat":48.846188,"lng":2.370406},"last_update":1437069075000},{"open":true,"id":5019,"name":"05019 - POISSY","bike_stands":25,"available_bikes":24,"position":{"lat":48.84969,"lng":2.35297},"last_update":1437069098000},{"open":true,"id":16038,"name":"16038 - RUE MOLITOR","bike_stands":34,"available_bikes":26,"position":{"lat":48.845097,"lng":2.265724},"last_update":1437068787000},{"open":true,"id":9022,"name":"09022 - LAFITTE ROSSINI","bike_stands":33,"available_bikes":1,"position":{"lat":48.873346,"lng":2.337981},"last_update":1437068959000},{"open":true,"id":11030,"name":"11030 - SAINT MAUR OBERKAMPF","bike_stands":22,"available_bikes":11,"position":{"lat":48.865308,"lng":2.37602},"last_update":1437069101000},{"open":true,"id":16130,"name":"16130 - BOIS DE BOULOGNE / PORTE DE LA MUETTE 2","bike_stands":33,"available_bikes":1,"position":{"lat":48.863758,"lng":2.267505},"last_update":1437069056000},{"open":true,"id":43009,"name":"43009 - MURS DU PARC (VINCENNES)","bike_stands":50,"available_bikes":41,"position":{"lat":48.846961,"lng":2.452237},"last_update":1437068661000},{"open":true,"id":15113,"name":"15113 - FALGUIERE ARSONVAL","bike_stands":25,"available_bikes":1,"position":{"lat":48.8404,"lng":2.313118},"last_update":1437068966000},{"open":true,"id":1001,"name":"01001 - ILE DE LA CITE PONT NEUF","bike_stands":16,"available_bikes":10,"position":{"lat":48.857092,"lng":2.341748},"last_update":1437068998000},{"open":true,"id":18044,"name":"18044 - CLICHY","bike_stands":32,"available_bikes":2,"position":{"lat":48.884127,"lng":2.328807},"last_update":1437069104000},{"open":true,"id":23001,"name":"23001 - COUTURIER 1 (LEVALLOIS)","bike_stands":35,"available_bikes":3,"position":{"lat":48.893615,"lng":2.277619},"last_update":1437069009000},{"open":true,"id":17046,"name":"17046 - MAC MAHON","bike_stands":25,"available_bikes":0,"position":{"lat":48.877532,"lng":2.294513},"last_update":1437068853000},{"open":false,"id":19018,"name":"19018 - CIT\u00c9 DE LA MUSIQUE","bike_stands":60,"available_bikes":0,"position":{"lat":48.888786,"lng":2.392686},"last_update":1437068737000},{"open":true,"id":14126,"name":"14126 - VAILLANT COUTURIER","bike_stands":42,"available_bikes":1,"position":{"lat":48.816981,"lng":2.33261},"last_update":1437068940000},{"open":true,"id":16033,"name":"16033 - MICHEL ANGE AUTEUIL","bike_stands":31,"available_bikes":19,"position":{"lat":48.848428,"lng":2.265254},"last_update":1437068867000},{"open":true,"id":14031,"name":"14031 - DIDOT CHATEAU","bike_stands":22,"available_bikes":6,"position":{"lat":48.8337,"lng":2.3215},"last_update":1437069035000},{"open":true,"id":16029,"name":"16029 - MAISON DE RADIO FRANCE","bike_stands":45,"available_bikes":39,"position":{"lat":48.85136,"lng":2.277697},"last_update":1437069049000},{"open":true,"id":17021,"name":"17021 - WAGRAM (17EME ARR.)","bike_stands":40,"available_bikes":0,"position":{"lat":48.884289,"lng":2.305497},"last_update":1437068740000},{"open":true,"id":19116,"name":"19116 - JAURES VILLETTE","bike_stands":30,"available_bikes":8,"position":{"lat":48.881472,"lng":2.370262},"last_update":1437068997000},{"open":true,"id":34010,"name":"34010 - DIDEROT 2 (SAINT OUEN)","bike_stands":50,"available_bikes":0,"position":{"lat":48.91157,"lng":2.33391},"last_update":1437069095000},{"open":true,"id":22006,"name":"22006 - PIERRET (NEUILLY)","bike_stands":25,"available_bikes":21,"position":{"lat":48.883027,"lng":2.260097},"last_update":1437069009000},{"open":true,"id":19014,"name":"19014 - LORRAINE","bike_stands":18,"available_bikes":14,"position":{"lat":48.886335,"lng":2.382461},"last_update":1437068901000},{"open":true,"id":15038,"name":"15038 - PLACE ADOLPHE CHERIOUX","bike_stands":66,"available_bikes":2,"position":{"lat":48.839635,"lng":2.300654},"last_update":1437069122000},{"open":true,"id":20043,"name":"20043 - CHARONNE AVRON","bike_stands":27,"available_bikes":8,"position":{"lat":48.851603,"lng":2.398403},"last_update":1437069089000},{"open":true,"id":21207,"name":"21207 - VERDIER (MONTROUGE)","bike_stands":29,"available_bikes":6,"position":{"lat":48.81553,"lng":2.31703},"last_update":1437068830000},{"open":true,"id":20036,"name":"20036 - MENILMONTANT - PELLEPORT","bike_stands":19,"available_bikes":0,"position":{"lat":48.870683,"lng":2.39896},"last_update":1437068952000},{"open":true,"id":15067,"name":"15067 - DESAIX","bike_stands":12,"available_bikes":7,"position":{"lat":48.852805,"lng":2.293077},"last_update":1437068823000},{"open":true,"id":18114,"name":"18114 - LEPIC VERON","bike_stands":21,"available_bikes":1,"position":{"lat":48.885258,"lng":2.334618},"last_update":1437069013000},{"open":true,"id":9035,"name":"09035 - PLACE DE BUDAPEST","bike_stands":44,"available_bikes":1,"position":{"lat":48.877753,"lng":2.327339},"last_update":1437068851000},{"open":true,"id":2016,"name":"02016 - ABOUKIR","bike_stands":21,"available_bikes":2,"position":{"lat":48.86866,"lng":2.350186},"last_update":1437069050000},{"open":true,"id":5021,"name":"05021 - JUSSIEU","bike_stands":36,"available_bikes":2,"position":{"lat":48.847185,"lng":2.353398},"last_update":1437068656000},{"open":true,"id":18006,"name":"18006 - MARCHE ST-PIERRE","bike_stands":33,"available_bikes":0,"position":{"lat":48.884692,"lng":2.344139},"last_update":1437068561000},{"open":true,"id":4015,"name":"04015 - MAIRIE DU 4 EME","bike_stands":45,"available_bikes":43,"position":{"lat":48.855966,"lng":2.356381},"last_update":1437069124000},{"open":true,"id":20117,"name":"20117 - SAINT FARGEAU MORTIER","bike_stands":32,"available_bikes":0,"position":{"lat":48.872747,"lng":2.408203},"last_update":1437068583000},{"open":true,"id":35009,"name":"35009 - LOLIVE 1 (PANTIN)","bike_stands":22,"available_bikes":0,"position":{"lat":48.892139,"lng":2.409108},"last_update":1437068603000},{"open":true,"id":17012,"name":"17012 - MAIRIE DU 17EME","bike_stands":23,"available_bikes":3,"position":{"lat":48.884101,"lng":2.322206},"last_update":1437069123000},{"open":true,"id":19029,"name":"19029 - SEINE FLANDRE","bike_stands":18,"available_bikes":9,"position":{"lat":48.886799,"lng":2.37472},"last_update":1437069075000},{"open":true,"id":10004,"name":"10004 - METZ","bike_stands":63,"available_bikes":44,"position":{"lat":48.870893,"lng":2.353522},"last_update":1437069070000},{"open":true,"id":2010,"name":"02010 - BOULEVARD MONTMARTRE","bike_stands":30,"available_bikes":2,"position":{"lat":48.870776,"lng":2.343163},"last_update":1437069119000},{"open":true,"id":9027,"name":"09027 - FONTAINE DOUAI","bike_stands":25,"available_bikes":6,"position":{"lat":48.882353,"lng":2.333263},"last_update":1437069072000},{"open":true,"id":11040,"name":"11040 - TEMPLE JEAN PIERRE TIMBAUD","bike_stands":36,"available_bikes":10,"position":{"lat":48.86442,"lng":2.366136},"last_update":1437069115000},{"open":true,"id":21003,"name":"21003 - JAURES 1 (BOULOGNE-BILLANCOURT)","bike_stands":23,"available_bikes":13,"position":{"lat":48.845638,"lng":2.237011},"last_update":1437069091000},{"open":true,"id":13036,"name":"13036 - TOLBIAC NATIONALE","bike_stands":36,"available_bikes":7,"position":{"lat":48.8269,"lng":2.365178},"last_update":1437069125000},{"open":true,"id":42014,"name":"42014 - CACHIN (IVRY)","bike_stands":51,"available_bikes":37,"position":{"lat":48.814141,"lng":2.390909},"last_update":1437068940000},{"open":true,"id":906,"name":"00906 - GARE DE L'EST","bike_stands":20,"available_bikes":10,"position":{"lat":48.87642,"lng":2.35863},"last_update":1437069096000},{"open":true,"id":14117,"name":"14117 - MOUCHOTTE","bike_stands":39,"available_bikes":0,"position":{"lat":48.839325,"lng":2.320954},"last_update":1437068523000},{"open":true,"id":10031,"name":"10031 - AQUEDUC","bike_stands":39,"available_bikes":1,"position":{"lat":48.881997,"lng":2.363625},"last_update":1437068988000},{"open":true,"id":13053,"name":"13053 - CHEVALERET TOLBIAC","bike_stands":21,"available_bikes":4,"position":{"lat":48.82941,"lng":2.375935},"last_update":1437068837000},{"open":true,"id":9010,"name":"09010 - CADET","bike_stands":23,"available_bikes":15,"position":{"lat":48.87672,"lng":2.344393},"last_update":1437069094000},{"open":true,"id":1002,"name":"01002 - PLACE DU CHATELET","bike_stands":21,"available_bikes":21,"position":{"lat":48.85794,"lng":2.34701},"last_update":1437068952000},{"open":true,"id":16107,"name":"16107 - GODARD","bike_stands":33,"available_bikes":0,"position":{"lat":48.865983,"lng":2.275726},"last_update":1437069019000},{"open":true,"id":13118,"name":"13118 - PATAY REGNAULT","bike_stands":63,"available_bikes":56,"position":{"lat":48.824343,"lng":2.37606},"last_update":1437069124000},{"open":true,"id":20013,"name":"20013 - PLACE DE LA REUNION","bike_stands":44,"available_bikes":13,"position":{"lat":48.855355,"lng":2.399729},"last_update":1437068574000},{"open":true,"id":17105,"name":"17105 - PALADINES","bike_stands":41,"available_bikes":1,"position":{"lat":48.883498,"lng":2.282016},"last_update":1437069084000},{"open":true,"id":17043,"name":"17043 - PLACE GENERAL KOENIG","bike_stands":38,"available_bikes":6,"position":{"lat":48.880234,"lng":2.285381},"last_update":1437069070000},{"open":true,"id":14037,"name":"14037 - JEAN MOULIN","bike_stands":33,"available_bikes":13,"position":{"lat":48.82571,"lng":2.32185},"last_update":1437068992000},{"open":true,"id":8005,"name":"08005 - MADELEINE","bike_stands":37,"available_bikes":15,"position":{"lat":48.86909,"lng":2.32443},"last_update":1437069061000},{"open":true,"id":5003,"name":"05003 - GAY LUSSAC LE GOFF","bike_stands":35,"available_bikes":5,"position":{"lat":48.846239,"lng":2.341325},"last_update":1437069086000},{"open":true,"id":11037,"name":"11037 - FAUBOURG DU TEMPLE PLACE DE LA REPUBLIQUE","bike_stands":38,"available_bikes":18,"position":{"lat":48.868,"lng":2.36498},"last_update":1437069122000},{"open":true,"id":10034,"name":"10034 - CHAPELLE LOUIS BLANC","bike_stands":20,"available_bikes":5,"position":{"lat":48.883849,"lng":2.360053},"last_update":1437069064000},{"open":true,"id":21211,"name":"21211 - MARNE (MONTROUGE)","bike_stands":38,"available_bikes":0,"position":{"lat":48.81175,"lng":2.30317},"last_update":1437068836000},{"open":true,"id":16002,"name":"16002 - PERGOLESE","bike_stands":38,"available_bikes":1,"position":{"lat":48.875185,"lng":2.284219},"last_update":1437068947000},{"open":true,"id":13008,"name":"13008 - ITALIE ROSALIE","bike_stands":53,"available_bikes":14,"position":{"lat":48.831996,"lng":2.354809},"last_update":1437069099000},{"open":true,"id":21110,"name":"21110 - VILLENEUVE (CLICHY)","bike_stands":35,"available_bikes":5,"position":{"lat":48.905503,"lng":2.31082},"last_update":1437069122000},{"open":true,"id":17041,"name":"17041 - PORTE DE VILLIERS","bike_stands":39,"available_bikes":17,"position":{"lat":48.882878,"lng":2.287667},"last_update":1437068961000},{"open":true,"id":8102,"name":"08102 - LAMENAIS WASHINGTON","bike_stands":26,"available_bikes":1,"position":{"lat":48.873555,"lng":2.303289},"last_update":1437068997000},{"open":true,"id":11027,"name":"11027 - SAINT AMBROISE PARMENTIER","bike_stands":38,"available_bikes":0,"position":{"lat":48.862135,"lng":2.37723},"last_update":1437068919000},{"open":true,"id":15027,"name":"15027 - GIDE","bike_stands":20,"available_bikes":2,"position":{"lat":48.836566,"lng":2.312707},"last_update":1437068612000},{"open":true,"id":20045,"name":"20045 - LOUIS GANNE","bike_stands":30,"available_bikes":1,"position":{"lat":48.86347,"lng":2.40967},"last_update":1437068631000},{"open":true,"id":10001,"name":"10001 - JOHANN STRAUSS","bike_stands":62,"available_bikes":17,"position":{"lat":48.8685,"lng":2.35997},"last_update":1437068978000},{"open":true,"id":15021,"name":"15021 - CROIX NIVERT","bike_stands":63,"available_bikes":25,"position":{"lat":48.844806,"lng":2.297572},"last_update":1437068925000},{"open":true,"id":9113,"name":"09113 - BLEUE","bike_stands":30,"available_bikes":7,"position":{"lat":48.875822,"lng":2.347303},"last_update":1437069071000},{"open":true,"id":5107,"name":"05107 - PONTOISE","bike_stands":23,"available_bikes":22,"position":{"lat":48.850458,"lng":2.352454},"last_update":1437068932000},{"open":true,"id":17040,"name":"17040 - TERNES PEREIRE","bike_stands":46,"available_bikes":0,"position":{"lat":48.879813,"lng":2.287956},"last_update":1437068811000},{"open":true,"id":41203,"name":"41203 - STALINGRAD (FONTENAY SOUS BOIS)","bike_stands":51,"available_bikes":23,"position":{"lat":48.850125,"lng":2.455529},"last_update":1437069110000},{"open":true,"id":15010,"name":"15010 - CAMBRONNE","bike_stands":59,"available_bikes":34,"position":{"lat":48.847575,"lng":2.302863},"last_update":1437069067000},{"open":true,"id":9012,"name":"09012 - ROUGEMONT","bike_stands":30,"available_bikes":12,"position":{"lat":48.871542,"lng":2.345836},"last_update":1437068975000},{"open":true,"id":2015,"name":"02015 - OPERA - CAPUCINES","bike_stands":31,"available_bikes":1,"position":{"lat":48.870509,"lng":2.334054},"last_update":1437068849000},{"open":true,"id":34011,"name":"34011 - DHALENNE (SAINT OUEN)","bike_stands":23,"available_bikes":0,"position":{"lat":48.914188,"lng":2.332083},"last_update":1437069033000},{"open":false,"id":31706,"name":"31706 - CHATEAU (BAGNOLET)","bike_stands":25,"available_bikes":0,"position":{"lat":48.863025,"lng":2.415622},"last_update":1437069064000},{"open":true,"id":16123,"name":"16123 - MAHATMA GANDHI","bike_stands":25,"available_bikes":2,"position":{"lat":48.876356,"lng":2.264205},"last_update":1437068848000},{"open":true,"id":12002,"name":"12002 - LACUEE","bike_stands":16,"available_bikes":10,"position":{"lat":48.849216,"lng":2.370503},"last_update":1437069108000},{"open":true,"id":15009,"name":"15009 - SUFFREN","bike_stands":46,"available_bikes":1,"position":{"lat":48.847176,"lng":2.307052},"last_update":1437069069000},{"open":true,"id":12036,"name":"12036 - REUILLY","bike_stands":42,"available_bikes":6,"position":{"lat":48.840303,"lng":2.39463},"last_update":1437069045000},{"open":true,"id":14004,"name":"14004 - PORT ROYAL COCHIN","bike_stands":23,"available_bikes":1,"position":{"lat":48.838432,"lng":2.340795},"last_update":1437068951000},{"open":true,"id":8001,"name":"08001 - PETIT PALAIS","bike_stands":41,"available_bikes":12,"position":{"lat":48.866844,"lng":2.31578},"last_update":1437068884000},{"open":true,"id":3101,"name":"03101 - PORTE SAINT MARTIN","bike_stands":34,"available_bikes":26,"position":{"lat":48.868636,"lng":2.355592},"last_update":1437069074000},{"open":true,"id":10010,"name":"10010 - JACQUES BONSERGENT","bike_stands":33,"available_bikes":28,"position":{"lat":48.871,"lng":2.361141},"last_update":1437069002000},{"open":true,"id":13122,"name":"13122 - PARC DE CHOISY","bike_stands":25,"available_bikes":13,"position":{"lat":48.828156,"lng":2.358514},"last_update":1437068922000},{"open":true,"id":18029,"name":"18029 - POTEAU","bike_stands":38,"available_bikes":5,"position":{"lat":48.894531,"lng":2.341541},"last_update":1437069085000},{"open":true,"id":21005,"name":"21005 - MORIZET (BOULOGNE-BILLANCOURT)","bike_stands":25,"available_bikes":16,"position":{"lat":48.834954,"lng":2.241688},"last_update":1437068993000},{"open":true,"id":15061,"name":"15061 - DESNOUETTES","bike_stands":22,"available_bikes":13,"position":{"lat":48.834768,"lng":2.284142},"last_update":1437069104000},{"open":true,"id":14122,"name":"14122 - BRUNE","bike_stands":19,"available_bikes":0,"position":{"lat":48.826503,"lng":2.309275},"last_update":1437068589000},{"open":true,"id":18025,"name":"18025 - MAIRIE DU 18 EME","bike_stands":39,"available_bikes":7,"position":{"lat":48.892926,"lng":2.344518},"last_update":1437069058000},{"open":true,"id":7003,"name":"07003 - BON MARCHE","bike_stands":59,"available_bikes":18,"position":{"lat":48.85123,"lng":2.32507},"last_update":1437068927000},{"open":true,"id":10113,"name":"10113 - PARMENTIER LOUVEL-TESSIER","bike_stands":43,"available_bikes":4,"position":{"lat":48.87138,"lng":2.369896},"last_update":1437069124000},{"open":true,"id":12030,"name":"12030 - WATTIGNIES","bike_stands":33,"available_bikes":28,"position":{"lat":48.836676,"lng":2.391796},"last_update":1437069102000},{"open":true,"id":10161,"name":"10161 - GARE DE L'EST","bike_stands":34,"available_bikes":11,"position":{"lat":48.87567,"lng":2.35951},"last_update":1437069072000},{"open":true,"id":16043,"name":"16043 - PLACE DE PASSY","bike_stands":15,"available_bikes":0,"position":{"lat":48.857803,"lng":2.277501},"last_update":1437068623000},{"open":true,"id":12123,"name":"12123 - CHATEAU DE VINCENNES","bike_stands":51,"available_bikes":50,"position":{"lat":48.844232,"lng":2.43921},"last_update":1437069120000},{"open":false,"id":18122,"name":"18122 - BINET","bike_stands":29,"available_bikes":0,"position":{"lat":48.899269,"lng":2.342963},"last_update":1437068543000},{"open":true,"id":908,"name":"00908 - PORT DU GROS CAILLOU (STATION MOBILE)","bike_stands":20,"available_bikes":4,"position":{"lat":48.86288,"lng":2.30652},"last_update":1437069109000},{"open":true,"id":12126,"name":"12126 - AVENUE DE GRAVELLE","bike_stands":50,"available_bikes":18,"position":{"lat":48.824408,"lng":2.418455},"last_update":1437068913000},{"open":true,"id":14006,"name":"14006 - SAINT JACQUES TOMBE ISSOIRE","bike_stands":22,"available_bikes":2,"position":{"lat":48.83319,"lng":2.336933},"last_update":1437069064000},{"open":true,"id":17117,"name":"17117 - PEREIRE SAUSSURE","bike_stands":30,"available_bikes":5,"position":{"lat":48.888186,"lng":2.310121},"last_update":1437069041000},{"open":true,"id":6013,"name":"06013 - JACQUES CALLOT","bike_stands":28,"available_bikes":28,"position":{"lat":48.855255,"lng":2.337539},"last_update":1437069085000},{"open":true,"id":8015,"name":"08015 - ROQUEPINE","bike_stands":44,"available_bikes":6,"position":{"lat":48.873486,"lng":2.320281},"last_update":1437069030000},{"open":true,"id":5014,"name":"05014 - CALVIN","bike_stands":28,"available_bikes":1,"position":{"lat":48.841633,"lng":2.348552},"last_update":1437069099000},{"open":false,"id":19119,"name":"19119 - BOURET PAILLERON","bike_stands":26,"available_bikes":0,"position":{"lat":48.880574,"lng":2.376853},"last_update":1437068847000},{"open":true,"id":13048,"name":"13048 - TOLBIAC WURTZ","bike_stands":28,"available_bikes":4,"position":{"lat":48.826494,"lng":2.344302},"last_update":1437069093000},{"open":true,"id":6003,"name":"06003 - SAINT SULPICE","bike_stands":21,"available_bikes":4,"position":{"lat":48.851648,"lng":2.330817},"last_update":1437069093000},{"open":true,"id":8113,"name":"08113 - PLACE ST AUGUSTIN","bike_stands":22,"available_bikes":3,"position":{"lat":48.874923,"lng":2.319395},"last_update":1437069037000},{"open":true,"id":19039,"name":"19039 - PAILLERON","bike_stands":24,"available_bikes":9,"position":{"lat":48.879775,"lng":2.374834},"last_update":1437068904000},{"open":true,"id":18012,"name":"18012 - DOUDEAUVILLE STEPHENSON","bike_stands":36,"available_bikes":3,"position":{"lat":48.888865,"lng":2.355967},"last_update":1437069096000},{"open":true,"id":21310,"name":"21310 - KLEBER (ISSY LES MOULINEAUX)","bike_stands":24,"available_bikes":19,"position":{"lat":48.82693,"lng":2.27225},"last_update":1437069109000},{"open":true,"id":13025,"name":"13025 - PLACE DE RUNGIS","bike_stands":33,"available_bikes":31,"position":{"lat":48.822456,"lng":2.347383},"last_update":1437069113000},{"open":false,"id":31702,"name":"31702 - CURIE (BAGNOLET)","bike_stands":50,"available_bikes":0,"position":{"lat":48.870658,"lng":2.424046},"last_update":1437069029000},{"open":true,"id":10002,"name":"10002 - STRASBOURG","bike_stands":17,"available_bikes":13,"position":{"lat":48.869679,"lng":2.354328},"last_update":1437069074000},{"open":true,"id":43401,"name":"43401 - GARE RER (JOINVILLE)","bike_stands":45,"available_bikes":41,"position":{"lat":48.819954,"lng":2.464026},"last_update":1437068950000},{"open":true,"id":11025,"name":"11025 - FROMENT BREGUET","bike_stands":48,"available_bikes":7,"position":{"lat":48.857041,"lng":2.372895},"last_update":1437069106000},{"open":true,"id":15114,"name":"15114 - PASTEUR COTENTIN","bike_stands":33,"available_bikes":0,"position":{"lat":48.838937,"lng":2.316168},"last_update":1437068646000},{"open":true,"id":11013,"name":"11013 - NATION VOLAIRE","bike_stands":46,"available_bikes":4,"position":{"lat":48.849277,"lng":2.394934},"last_update":1437069118000},{"open":true,"id":17037,"name":"17037 - BAYERN PEREIRE","bike_stands":22,"available_bikes":1,"position":{"lat":48.881831,"lng":2.292141},"last_update":1437068911000},{"open":true,"id":9101,"name":"09101 - CADET LA FAYETTE","bike_stands":19,"available_bikes":15,"position":{"lat":48.87564,"lng":2.343524},"last_update":1437068981000},{"open":true,"id":11101,"name":"11101 - SQUARE NORDLING","bike_stands":49,"available_bikes":14,"position":{"lat":48.852529,"lng":2.380584},"last_update":1437069050000},{"open":true,"id":21012,"name":"21012 - LECLERC (BOULOGNE-BILLANCOURT)","bike_stands":50,"available_bikes":18,"position":{"lat":48.830586,"lng":2.234491},"last_update":1437068935000},{"open":true,"id":20132,"name":"20132 - REUNION","bike_stands":25,"available_bikes":9,"position":{"lat":48.852567,"lng":2.403928},"last_update":1437069095000},{"open":true,"id":12042,"name":"12042 - MONTEMPOIVRE","bike_stands":42,"available_bikes":31,"position":{"lat":48.840398,"lng":2.409229},"last_update":1437069110000},{"open":false,"id":18038,"name":"18038 - ROND POINT DE LA CHAPELLE","bike_stands":49,"available_bikes":0,"position":{"lat":48.89522,"lng":2.360098},"last_update":1437068599000},{"open":true,"id":10153,"name":"10153 - GARE DU NORD 3","bike_stands":20,"available_bikes":0,"position":{"lat":48.879578,"lng":2.354463},"last_update":1437068915000},{"open":true,"id":10023,"name":"10023 - VERDUN","bike_stands":14,"available_bikes":2,"position":{"lat":48.876156,"lng":2.360915},"last_update":1437068986000},{"open":true,"id":8017,"name":"08017 - ROCHER","bike_stands":64,"available_bikes":11,"position":{"lat":48.876079,"lng":2.322732},"last_update":1437068787000},{"open":true,"id":20122,"name":"20122 - DAVOUT VITRUVE","bike_stands":22,"available_bikes":1,"position":{"lat":48.86024,"lng":2.408758},"last_update":1437068562000},{"open":true,"id":8103,"name":"08103 - D'ARTOIS BERRY","bike_stands":23,"available_bikes":2,"position":{"lat":48.873794,"lng":2.3063},"last_update":1437069025000},{"open":true,"id":32003,"name":"32003 - METALLURGIE (SAINT DENIS)","bike_stands":29,"available_bikes":0,"position":{"lat":48.90933,"lng":2.358051},"last_update":1437068749000},{"open":true,"id":43004,"name":"43004 - MONTREUIL (VINCENNES)","bike_stands":25,"available_bikes":22,"position":{"lat":48.850418,"lng":2.434514},"last_update":1437068924000},{"open":true,"id":17019,"name":"17019 - MALESHERBES","bike_stands":20,"available_bikes":2,"position":{"lat":48.882609,"lng":2.309026},"last_update":1437069124000},{"open":true,"id":17119,"name":"17119 - TOQUEVILLE","bike_stands":31,"available_bikes":3,"position":{"lat":48.884924,"lng":2.310909},"last_update":1437069116000},{"open":true,"id":2009,"name":"02009 - BOURSE","bike_stands":59,"available_bikes":0,"position":{"lat":48.868852,"lng":2.339731},"last_update":1437068840000},{"open":true,"id":19016,"name":"19016 - OURCQ","bike_stands":30,"available_bikes":13,"position":{"lat":48.886394,"lng":2.386541},"last_update":1437068811000},{"open":true,"id":20115,"name":"20115 - PORTE DE BAGNOLET","bike_stands":20,"available_bikes":0,"position":{"lat":48.864424,"lng":2.410411},"last_update":1437068930000},{"open":true,"id":11021,"name":"11021 - PHILIPPE AUGUSTE (20EME ARR.)","bike_stands":23,"available_bikes":6,"position":{"lat":48.858445,"lng":2.390398},"last_update":1437069116000},{"open":true,"id":8036,"name":"08036 - RIO","bike_stands":39,"available_bikes":0,"position":{"lat":48.877456,"lng":2.309694},"last_update":1437068846000},{"open":true,"id":9039,"name":"09039 - CHAUSSEE D'ANTIN","bike_stands":28,"available_bikes":2,"position":{"lat":48.87243,"lng":2.33359},"last_update":1437069040000},{"open":true,"id":18002,"name":"18002 - CLIGNANCOURT","bike_stands":24,"available_bikes":0,"position":{"lat":48.885302,"lng":2.347211},"last_update":1437069067000},{"open":true,"id":41301,"name":"41301 - CLEMANCEAU (NOGENT)","bike_stands":50,"available_bikes":50,"position":{"lat":48.836126,"lng":2.470375},"last_update":1437034796000},{"open":false,"id":19017,"name":"19017 - PARC DE LA VILLETTE","bike_stands":34,"available_bikes":0,"position":{"lat":48.888369,"lng":2.390992},"last_update":1437068559000},{"open":true,"id":18032,"name":"18032 - PORTE DE CLIGNANCOURT","bike_stands":32,"available_bikes":5,"position":{"lat":48.897488,"lng":2.343996},"last_update":1437069124000},{"open":true,"id":8039,"name":"08039 - COLISEE","bike_stands":24,"available_bikes":12,"position":{"lat":48.870482,"lng":2.307663},"last_update":1437068918000},{"open":true,"id":14101,"name":"14101 - PLACE FERNAND MOURLOT","bike_stands":33,"available_bikes":4,"position":{"lat":48.841505,"lng":2.323278},"last_update":1437069118000},{"open":true,"id":4003,"name":"04003 - PONT SAINT LOUIS","bike_stands":21,"available_bikes":19,"position":{"lat":48.852945,"lng":2.352089},"last_update":1437069029000},{"open":true,"id":18010,"name":"18010 - MARX DORMOY - RIQUET","bike_stands":29,"available_bikes":8,"position":{"lat":48.890264,"lng":2.360299},"last_update":1437069094000},{"open":true,"id":15060,"name":"15060 - MONDRIAN","bike_stands":21,"available_bikes":7,"position":{"lat":48.844293,"lng":2.277346},"last_update":1437068936000},{"open":true,"id":12105,"name":"12105 - BERCY VILLOT","bike_stands":35,"available_bikes":27,"position":{"lat":48.841907,"lng":2.376606},"last_update":1437068425000},{"open":true,"id":12003,"name":"12003 - QUAI DE LA RAPEE","bike_stands":69,"available_bikes":68,"position":{"lat":48.845887,"lng":2.366897},"last_update":1437069061000},{"open":true,"id":14103,"name":"14103 - MAINE LIANCOURT","bike_stands":27,"available_bikes":0,"position":{"lat":48.835064,"lng":2.323731},"last_update":1437068882000},{"open":true,"id":13030,"name":"13030 - ITALIE TOLBIAC","bike_stands":40,"available_bikes":19,"position":{"lat":48.825839,"lng":2.357215},"last_update":1437069125000},{"open":true,"id":8046,"name":"08046 - ALMA MARCEAU","bike_stands":30,"available_bikes":1,"position":{"lat":48.865194,"lng":2.30025},"last_update":1437069124000},